stop_id,stop_code,stop_name,stop_desc,stop_lat,stop_lon,zone_id,stop_url,location_type,parent_station,stop_timezone,wheelchair_boarding
25316,25316,BLANCO & DRESDEN,,29.499014,-98.507783,,,,,,0
72479,72479,FRESNO & IH-10 W ACCESS RD.,,29.474488,-98.516238,,,,,,0
56239,56239,FREDERICKSBURG RD. & N. FLORES,,29.441883,-98.503773,,,,,,0
76759,76759,MARTIN & N. FRIO,,29.430081,-98.503058,,,,,,0
88973,88973,DOLOROSA & S. FLORES,,29.424073,-98.494741,,,,,,0
72487,72487,NACOGDOCHES & CHEEVER,,29.517577,-98.450649,,,,,,0
79977,79977,ST. MARY'S & PECAN,,29.428658,-98.491352,,,,,,0
76647,76647,FRIO & MARTIN,,29.430631,-98.503501,,,,,,0
56227,56227,FREDERICKSBURG RD. & LAUREL,,29.4421,-98.504134,,,,,,0
41556,41556,NEER & BASSE,Neer Ave & Venice St,29.488447,-98.520718,,,,,,0
25317,25317,BLANCO & DRESDEN,,29.499095,-98.507835,,,,,,0
72857,72857,BLANCO & WURZBACH PKWY,,29.559864,-98.51809,,,,,,0
55229,55229,San Antonio International Airport,,29.527545,-98.473204,,,,,,0
78539,78539,RECTOR OPPOSITE AHERN - N.STAR MALL,AHERN DR & W RECTOR DR,29.516916,-98.495928,,,,,,0
45517,45517,BLANCO & BASSE,,29.488728,-98.507862,,,,,,0
35973,35973,DENVER & S. HACKBERRY,,29.404863,-98.473301,,,,,,0
63973,63973,STEVES & CLARK,Steves Ave & Clark Ave,29.390668,-98.44839,,,,,,0
26687,26687,DOLLARHIDE & PECAN VALLEY,,29.36727,-98.438429,,,,,,0
51536,51536,PICKWELL AT TEX. DEPT. OF HUMAN SER,Pickwell Dr & Dumbarton Dr,29.35469,-98.425305,,,,,,0
26686,26686,DOLLARHIDE & PECAN VALLEY,,29.367306,-98.438367,,,,,,0
63979,63979,STEVES & CLARK,Steves Ave & Clark Ave,29.390722,-98.448493,,,,,,0
35979,35979,DENVER & S HACKBERRY,Denver Blvd & Aransas Ave,29.404918,-98.473285,,,,,,0
91666,91666,ALAMO OPPOSITE NUEVA,,29.420483,-98.488064,,,,,,0
95226,95226,BLANCO & HILDERBRAND,,29.466353,-98.507812,,,,,,0
77557,77557,SAN PEDRO & RECTOR,,29.51669,-98.499311,,,,,,0
47647,47647,SAN PEDRO & MYRTLE,,29.445079,-98.499353,,,,,,0
84439,84439,W. COMMERCE & COLORADO,,29.426695,-98.51098,,,,,,0
71639,71639,W. COMMERCE & GEN. MCMULLEN,,29.430698,-98.553208,,,,,,0
99899,99899,ENRIQUE BARRERA PKWY & ACME,,29.420408,-98.587713,,,,,,0
48499,48499,KEL-LAC PARK & RIDE,,29.402967,-98.623114,,,,,,0
88483,88483,BUENA VISTA & S.ZARZAMORA,,29.427049,-98.527157,,,,,,0
84636,84636,COLORADO & BUENA VISTA,,29.425603,-98.511135,,,,,,0
77556,77556,SAN PEDRO & RECTOR,,29.516744,-98.499208,,,,,,0
91766,91766,SAN PEDRO & E. NAKOMA,N Us-281 & E Nakoma St,29.549483,-98.487556,,,,,,0
95783,95783,E. COMMERCE & S. HACKBERRY,,29.42051,-98.473362,,,,,,0
89953,89953,E. HOUSTON & ESTATE,,29.42399,-98.394821,,,,,,0
95789,95789,E. COMMERCE & S. HACKBERRY,,29.42051,-98.473249,,,,,,0
47746,47746,SAN PEDRO & LA MANDA,,29.48714,-98.499146,,,,,,0
19257,19257,MCCULLOUGH & OBLATE,,29.503934,-98.491748,,,,,,0
99457,99457,MCCULLOUGH & ROSEWOOD,,29.46521,-98.491823,,,,,,0
59457,59457,MCCULLOUGH & CYPRESS,,29.440695,-98.49187,,,,,,0
79877,79877,ST. MARY'S BETWEEN CONVENT & MART,,29.429614,-98.491353,,,,,,0
11727,11727,S. ST. MARY'S & ALAMO,,29.415664,-98.489527,,,,,,0
52363,52363,RIGSBY & WALTERS,,29.398417,-98.452464,,,,,,0
52369,52369,RIGSBY & WALTERS,,29.398489,-98.45233,,,,,,0
11726,11726,S ST. MARY'S & ALAMO,,29.415637,-98.489475,,,,,,0
99396,99396,NAVARRO OPPOSITE VILLITA,,29.422504,-98.490434,,,,,,0
59556,59556,MCCULLOUGH & BROOKLYN,,29.440632,-98.491839,,,,,,0
93757,93757,STADIUM DR. AT TRINITY UNIVERSITY,,29.463028,-98.481144,,,,,,0
41197,41197,N. ST. MARY'S & DEWEY,,29.446687,-98.486574,,,,,,0
84637,84637,COLORADO & BUENA VISTA,,29.425675,-98.511165,,,,,,0
11449,11449,LAS PALMAS SHOPPING CENTER,LAS PALMAS MALL & CASTROVILLE RD,29.417623,-98.552866,,,,,,0
24579,24579,CASTROVILLE & S.W. 36TH,,29.411956,-98.574258,,,,,,0
34347,34347,S.W.36TH AT UNIV. HEALTH CLIN-S.W.,UNIVERSITY SOUTHWEST FAMILY HEALTH CENTER,29.408897,-98.574986,,,,,,0
24453,24453,CASTROVILLE & S.W. 36TH,,29.411821,-98.574608,,,,,,0
42116,42116,N. ST. MARY'S & JOSEPHINE,,29.446687,-98.486533,,,,,,0
78247,78247,BROADWAY & GULF MART,,29.518342,-98.463065,,,,,,0
47157,47157,BROADWAY & CASTANO,,29.490402,-98.466534,,,,,,0
88167,88167,BROADWAY & PATTERSON,,29.471364,-98.463155,,,,,,0
36997,36997,AMANDA BETWEEN I & J ST.,,29.404522,-98.436846,,,,,,0
97216,97216,W.W. WHITE RD. OPPOSITE THEIS,,29.379668,-98.404459,,,,,,0
98729,98729,E. SOUTHCROSS & PECAN VALLEY,,29.37751,-98.432205,,,,,,0
35889,35889,ARANSAS & S. HACKBERRY,Aransas Ave & S Hackberry St,29.405278,-98.47312,,,,,,0
88166,88166,BROADWAY BET TERRELL RD & ELIZABETH,Broadway Ave & Unnamed,29.471799,-98.462851,,,,,,0
47156,47156,BROADWAY & CASTANO,,29.48986,-98.466482,,,,,,0
77696,77696,BROADWAY & N.E.L410 E.ACCESS RD.,Broadway St & Ne I-410-loop,29.516197,-98.464698,,,,,,0
23953,23953,PALO ALTO COLLEGE,,29.324556,-98.544095,,,,,,0
36296,36296,NOGALITOS & S. FLORES,,29.408939,-98.501475,,,,,,0
39163,39163,CERALVO & GEN. MCMULLEN,Ceralvo St & Juanita St,29.409379,-98.556902,,,,,,0
38623,38623,CERALVO & S. ZARZAMORA,,29.406835,-98.529803,,,,,,0
23626,23626,BRAZOS & LAREDO,,29.412039,-98.515188,,,,,,0
74587,74587,PERRIN BEITEL BETWN BRETTON RIDGE & 410,,29.517746,-98.410996,,,,,,0
28989,28989,EISENHAUER & AUSTIN HWY.,Eisenhauer Rd & Unnamed,29.495785,-98.428574,,,,,,0
89277,89277,ST. MARY'S & TRAVIS,,29.427665,-98.491363,,,,,,0
38629,38629,CERALVO & S. ZARZAMORA,Ceralvo St & Unnamed,29.406882,-98.529591,,,,,,0
39169,39169,CERALVO & GEN. MCMULLEN,Ceralvo St & S General Mcmullen Dr,29.409397,-98.556603,,,,,,0
58479,58479,RITTIMAN OPPOSITE GOLDFIELD,Rittiman Rd & Goldfield Dr,29.484141,-98.397244,,,,,,0
58279,58279,RITTIMAN & HARRY WURZBACH,,29.484853,-98.429715,,,,,,0
29423,29423,IOWA & S. NEW BRAUNFELS,,29.411966,-98.461325,,,,,,0
22753,22753,MORNINGVIEW & BROOKSDALE,Morningview Dr & Bookertee Rd,29.410577,-98.420366,,,,,,0
16767,16767,W.W. WHITE IN FRONT OF 911,,29.416237,-98.405676,,,,,,0
38876,38876,DIANE & BERNADINE,Diane Rd & Bernadine Dr,29.405107,-98.397934,,,,,,0
22749,22749,BROOKSDALE & MORNINGVIEW,,29.410534,-98.420309,,,,,,0
29427,29427,S. NEW BRAUNFELS & IOWA,,29.412054,-98.461371,,,,,,0
58473,58473,RITTIMAN & GOLDFIELD,,29.484077,-98.398144,,,,,,0
79146,79146,VILLAGE DR. OPP. N.E. BAPTIST HOSP,,29.518964,-98.427437,,,,,,0
59786,59786,RANDOLPH PARK & RIDE,RANDOLPH P/R,29.524574,-98.391805,,,,,,0
32169,32169,CROSSROADS PARK & RIDE,CROSSROADS P/R,29.493364,-98.548719,,,,,,0
17116,17116,UNIVERSITY PARK & RIDE,,29.590874,-98.597911,,,,,,0
32163,32163,CROSSROADS PARK & RIDE,CROSSROADS P/R,29.49384,-98.548228,,,,,,0
38696,38696,WIND BURN TR. & KITTY HAWK,,29.534829,-98.331954,,,,,,0
96877,96877,FM 1516 & UPPER SEGUIN RD.,,29.504842,-98.307667,,,,,,0
99439,99439,OLD SEGUIN RD. OPP. CHARLES CONRAD,,29.464808,-98.395278,,,,,,0
85599,85599,BANDERA & HILLCREST,Bandera Rd & Hillcrest Dr,29.469038,-98.569846,,,,,,0
28389,28389,BANDERA & HUEBNER,,29.499288,-98.6238,,,,,,0
28383,28383,BANDERA & HUEBNER,,29.499404,-98.624223,,,,,,0
85593,85593,BANDERA & HILLCREST,,29.469204,-98.570295,,,,,,0
79619,79619,HAYS & N. NEW BRAUNFELS,,29.43021,-98.461121,,,,,,0
85273,85273,NOLAN & N. HACKBERRY,,29.427549,-98.473249,,,,,,0
78399,78399,MARTIN & N. ZARZAMORA,,29.432205,-98.526335,,,,,,0
52963,52963,RUIZ IN FRONT OF WEST SIDE YMCA,,29.438595,-98.550114,,,,,,0
64477,64477,N.W. 24TH BETWEEN LEAL & PEREZ,,29.436381,-98.541827,,,,,,0
78393,78393,MARTIN & N. ZARZAMORA,,29.432067,-98.526491,,,,,,0
79613,79613,HAYS & N. NEW BRAUNFELS,,29.430192,-98.461131,,,,,,0
11593,11593,EVERS BETWEEN GRASS VALLEY & TEAL,,29.503213,-98.616649,,,,,,0
85773,85773,E. HOUSTON & HACKBERRY,,29.424977,-98.473298,,,,,,0
67576,67576,AT&T PARKWAY & GEMBLER RD.,,29.435084,-98.433648,,,,,,0
57269,57269,DIETRICH BETWEEN DIXVILLE & BRANCH,,29.441455,-98.401172,,,,,,0
85779,85779,HOUSTON & N. HACKBERRY,,29.425094,-98.473228,,,,,,0
45219,45219,CULEBRA & 24TH,,29.447047,-98.541103,,,,,,0
35976,35976,S. HACKBERRY & DENVER,,29.404845,-98.473239,,,,,,0
35977,35977,DENVER & S. HACKBERRY,,29.404998,-98.473291,,,,,,0
56383,56383,RIGSBY & W.W. WHITE,Rigsby Ave & S Ww White Rd,29.398252,-98.404603,,,,,,0
35386,35386,GOLIAD & PECAN VALLEY,,29.364897,-98.440407,,,,,,0
82589,82589,EADS & ROOSEVELT,,29.383277,-98.483497,,,,,,0
93226,93226,LIGHTHOUSE FOR THE BLIND,,29.380344,-98.482662,,,,,,0
29769,29769,WOODLAWN & N. ZARZAMORA,,29.453832,-98.523834,,,,,,0
21239,21239,WOODLAWN & BANDERA,,29.456747,-98.554263,,,,,,0
98547,98547,INGRAM TRANSIT CENTER,,29.465068,-98.62524,,,,,,0
92993,92993,INGRAM & BROADVIEW,,29.46276,-98.581327,,,,,,0
21233,21233,WOODLAWN & BANDERA,,29.456729,-98.554304,,,,,,0
29763,29763,WOODLAWN & N. ZARZAMORA,,29.453814,-98.523886,,,,,,0
82583,82583,EADS & ROOSEVELT,,29.383259,-98.483415,,,,,,0
35387,35387,GOLIAD & PECAN VALLEY,,29.364915,-98.440489,,,,,,0
26556,26556,S. PRESA & HOT WELLS,S Presa St & Hot Wells Blvd,29.368432,-98.47085,,,,,,0
63876,63876,S. PRESA & STEVES,,29.391299,-98.480552,,,,,,0
11656,11656,S. PRESA & CAMARGO (S. ALAMO),,29.415962,-98.488805,,,,,,0
76769,76769,FREDERICKSBURG RD. & RAMONA,,29.473163,-98.534691,,,,,,0
86856,86856,VANCE JACKSON & SPICEWOOD,,29.510307,-98.535119,,,,,,0
21769,21769,VANCE JACKSON & WURZBACH,Wurzbach Rd & Southern Pacific,29.540444,-98.552657,,,,,,0
11419,11419,LAUREATE DR. IN FRONT OF 10951,,29.54619,-98.586479,,,,,,0
21763,21763,VANCE JACKSON & WURZBACH,,29.540355,-98.552619,,,,,,0
86947,86947,VANCE JACKSON OPPOSITE SPICEWOOD,,29.51037,-98.535181,,,,,,0
11967,11967,S. PRESA OPPOSITE SAN ARTURO (701),,29.416178,-98.488888,,,,,,0
63877,63877,S. PRESA & STEVES,,29.391408,-98.480676,,,,,,0
26557,26557,S. PRESA & RIVERSIDE,,29.369171,-98.471428,,,,,,0
32456,32456,S. PRESA & CAROLINA,,29.407227,-98.484776,,,,,,0
19747,19747,MILITARY HWY. & BROKEN BOUGH,,29.588035,-98.556332,,,,,,0
28763,28763,LOCKHILL-SELMA & BEL AIR,,29.540037,-98.526793,,,,,,0
98497,98497,WEST AVE. OPPOSITE ARROYA VISTA,,29.50839,-98.525959,,,,,,0
53367,53367,ROOSEVELT & S.E. MILITARY DR.,,29.356238,-98.481322,,,,,,0
46526,46526,RENOVA BETWEEN SOCORRO & SANCO,,29.316616,-98.472059,,,,,,0
53366,53366,ROOSEVELT & S.E. MILITARY DR.,,29.355408,-98.481219,,,,,,0
98379,98379,FREDERICKSBURG RD.  & HILDERBRAND,,29.465885,-98.527418,,,,,,0
49516,49516,WEST AVE/ & BASSE,,29.488505,-98.525968,,,,,,0
56136,56136,PLEASANTON RD. & S.W. MILITARY DR,,29.356596,-98.503858,,,,,,0
13249,13249,GUADALUPE & BRAZOS,Guadalupe St & S Smith St,29.41845,-98.514136,,,,,,0
98959,98959,GUADALUPE & S. ZARZAMORA,Guadalupe St & S Zarzamora St,29.419679,-98.527912,,,,,,0
26697,26697,HAMILTON & SALTILLO,,29.411769,-98.533679,,,,,,0
98953,98953,GUADALUPE & S. ZARZAMORA,,29.419641,-98.52807,,,,,,0
13243,13243,GUADALUPE & BRAZOS,,29.418383,-98.514428,,,,,,0
86157,86157,S. FLORES & TOUDOUZE,,29.385331,-98.502961,,,,,,0
56137,56137,PLEASANTON RD. & S.W. MILITARY DR,,29.356785,-98.50393,,,,,,0
49977,49977,S. FLORES & S.W. MILITARY DR.,,29.356779,-98.49103,,,,,,0
86837,86837,PLEASANTON RD. IN FRONT OF 3813,,29.338726,-98.503893,,,,,,0
12697,12697,COMMERCIAL & GILLETTE,,29.330752,-98.51624,,,,,,0
91356,91356,OREY & DIVISION,,29.379423,-98.521444,,,,,,0
77336,77336,PROBANDT & TRUAX,,29.388767,-98.500276,,,,,,0
45229,45229,CULEBRA & WILSON,,29.44675,-98.539629,,,,,,0
36719,36719,CULEBRA & N.W. 36TH ST.,,29.449409,-98.568799,,,,,,0
37919,37919,CULEBRA & MIRA VISTA,,29.448513,-98.598098,,,,,,0
35989,35989,CULEBRA & CALLAGHAN,,29.448536,-98.60218,,,,,,0
36913,36913,CULEBRA & CANTERBURY,,29.448437,-98.601644,,,,,,0
36713,36713,CULEBRA & ESMERALDA (N.W. 36tTH,Culebra Rd & Esmeralda Dr,29.449342,-98.56914,,,,,,0
77537,77537,PROBANDT & THEO,,29.388075,-98.500336,,,,,,0
91359,91359,DIVISION BTWN RUDY & OREY,BUFFALO ST & DIVISION AVE,29.379523,-98.519889,,,,,,0
52197,52197,COMMERCIAL & S.W. MILITARY DR.,,29.356863,-98.516325,,,,,,0
42853,42853,AURORA & CONSUELO,,29.444036,-98.58253,,,,,,0
55483,55483,INEZ & ESMERALDA,Inez Ave & Esmeralda Dr,29.441419,-98.569944,,,,,,0
69413,69413,RUIZ & N. ZARZAMORA,Ruiz St & N Murry St,29.436383,-98.526091,,,,,,0
53119,53119,POPLAR & 28TH,,29.442937,-98.547604,,,,,,0
44397,44397,FREDERICKSBURG RD. & UNIVERSITY,,29.446836,-98.508835,,,,,,0
95619,95619,DONALDSON & WILSON,,29.464056,-98.540271,,,,,,0
76859,76859,E. SUNSHINE & HILLCREST,Sunshine Dr E & Hillcrest Dr,29.472596,-98.566954,,,,,,0
45659,45659,CENTERVIEW OPPOSITE WOODCOCK,,29.487907,-98.570646,,,,,,0
76853,76853,E. SUNSHINE & HILLCREST,Sunshine Dr E & Hillcrest Dr,29.472542,-98.566954,,,,,,0
62187,62187,NOGALITOS & TAFT,,29.395019,-98.516519,,,,,,0
93756,93756,MERTON-MINTER AT VA/UNIVERSITY HOSPITALS,Merton Minter Blvd & Melrose Holmgreen,29.506405,-98.578768,,,,,,0
58483,58483,BABCOCK & HILLCREST,,29.484605,-98.55929,,,,,,0
23929,23929,WOODLAWN & IH-10 W. ACCESS RD.,Southern Pacific & Fredericksburg Rd,29.452955,-98.515106,,,,,,0
79126,79126,NAVARRO OPPOSITE SOLEDAD,,29.433142,-98.49327,,,,,,0
58489,58489,BABCOCK & HILLCREST,,29.484461,-98.558733,,,,,,0
93837,93837,MERTON-MINTER AT VA/UNIVERSITY HOSPITALS,,29.506247,-98.578908,,,,,,0
15333,15333,SEA WORLD OF TEXAS MAIN ENTRANCE,,29.459078,-98.700798,,,,,,0
28433,28433,LAREDO & S. ZARZAMORA,,29.413017,-98.52891,,,,,,0
28857,28857,CAMINO SANTA MARIA OPP. CINCINNATI,,29.453368,-98.560362,,,,,,0
28349,28349,LAREDO & S. ZARZAMORA,,29.41308,-98.528797,,,,,,0
99193,99193,EL PASO & GEN. MCMULLEN,El Paso St & S General Mcmullen Dr,29.423449,-98.555064,,,,,,0
75343,75343,W.COMMERCE & S.W.36TH,W Commerce St & Nw 36th St,29.432475,-98.571921,,,,,,0
81926,81926,NAVARRO & COMMERCE,,29.424137,-98.489827,,,,,,0
74857,74857,N.W. 24TH & W. COMMERCE,,29.429739,-98.542594,,,,,,0
75349,75349,W. COMMERCE & 36TH,,29.432559,-98.572489,,,,,,0
91219,91219,EL PASO &  GEN. MCMULLEN,El Paso St & Unnamed,29.423413,-98.554868,,,,,,0
49533,49533,CULEBRA & N. ZARZAMORA,,29.445142,-98.525097,,,,,,0
49539,49539,CULEBRA & N. ZARZAMORA,,29.445205,-98.525087,,,,,,0
42219,42219,FRED. RD. AT WONDERLAND MALL,,29.490467,-98.551655,,,,,,0
33136,33136,FREDERICKSBURG RD. OPPOSITE RESEARCH,,29.53871,-98.578906,,,,,,0
12947,12947,FREDERICKSBURG RD. & PRUE RD.,,29.543768,-98.581657,,,,,,0
22386,22386,HUEBNER & FREDERICKSBURG RD.,,29.542515,-98.581026,,,,,,0
82459,82459,FIESTA TEXAS MAIN ENTRANCE,,29.599054,-98.607178,,,,,,0
89869,89869,COMMERCE & ST. MARY'S,,29.424561,-98.491383,,,,,,0
41657,41657,NEER OPPOSITE 3614,Neer Ave & Venice St,29.487987,-98.520769,,,,,,0
97259,97259,HILDEBRAND & SAN PEDRO,,29.46649,-98.499369,,,,,,0
47549,47549,BASSE & SAN PEDRO,Basse Rd & San Pedro Ave,29.488195,-98.498982,,,,,,0
79627,79627,N. NEW BRAUNFELS & HAYS,,29.430354,-98.461131,,,,,,0
25253,25253,MARTIN LUTHER KING & ROBESON,,29.413376,-98.442199,,,,,,0
26263,26263,MARTIN LUTHER KING & W.W. WH,Martin Luther King Dr & Lord Rd,29.413567,-98.406179,,,,,,0
82897,82897,ROOSEVELT & MCDONALD,,29.382004,-98.483044,,,,,,0
53976,53976,S. NEW BRAUNFELS & S.E. MILITARY,,29.351876,-98.448432,,,,,,0
26593,26593,HOT WELLS OPPOSITE HEBERLING,,29.368623,-98.468849,,,,,,0
36277,36277,NOGALITOS & KELLER,Nogalitos St & Keller St,29.40852,-98.502325,,,,,,0
48729,48729,S.W. MILITARY DR. & BYNUM,,29.358623,-98.562726,,,,,,0
23627,23627,BRAZOS & JEAN,,29.411362,-98.515363,,,,,,0
39167,39167,GEN. MCMULLEN & CERALVO,,29.409498,-98.556794,,,,,,0
25447,25447,WILSON & WOODLAWN,,29.45562,-98.539183,,,,,,0
38939,38939,CULEBRA & EL CENTRO,,29.448518,-98.593636,,,,,,0
95176,95176,WILSON BETWEEN GRAMERCY / DONALDSON,Wilson Blvd & Donaldson Ave,29.463388,-98.540481,,,,,,0
78797,78797,WEST AVE BET L410 & JACKSON-KELLER,,29.516041,-98.526047,,,,,,0
35613,35613,THOUSAND OAKS & JONES MALTSBERGER,Thousand Oaks Dr & Jones-maltsberger Rd,29.578522,-98.442249,,,,,,0
95319,95319,NACO PASS & UHR LN.,,29.550926,-98.410794,,,,,,0
35739,35739,THOUSAND OAKS & JONES MALTSBERGER,Thousand Oaks Dr & Jones-maltsberger Rd,29.578079,-98.44161,,,,,,0
95899,95899,1000 OAKS/FRONT PARK OAKS-SHOP.CTR.,,29.591899,-98.471499,,,,,,0
62787,62787,SAN PEDRO IN FRONT OF SAN PEDRO SQ.,,29.563945,-98.483193,,,,,,0
97253,97253,HILDEBRAND & SAN PEDRO,,29.466436,-98.499379,,,,,,0
94833,94833,HARRY WURZBACH & SCOTT,,29.46292,-98.445986,,,,,,0
58263,58263,RITTIMAN & HARRY WURZBACH,,29.484709,-98.430859,,,,,,0
26727,26727,DELL OAK & EISENHAUER,,29.496614,-98.40664,,,,,,0
98249,98249,HILDEBRAND & BROADWAY,,29.465761,-98.463063,,,,,,0
99917,99917,N. NEW BRAUNFELS & E. COMMERCE,,29.419544,-98.461349,,,,,,0
19697,19697,QUINTANA IN FRONT OF 1615,,29.37305,-98.555853,,,,,,0
98723,98723,E. SOUTHCROSS & PECAN VALLEY,E Southcross Blvd & Pecan Valley Dr,29.377562,-98.432637,,,,,,0
26739,26739,E. SOUTHCROSS & PLEASANTON,,29.368482,-98.503975,,,,,,0
26789,26789,W. SOUTHCROSS & S. ZARZAMORA,W Southcross Blvd & Kyle St,29.368119,-98.533863,,,,,,0
42253,42253,JOSEPHINE BETWEEN DEWEY & POLK,W JOSEPHINE ST & E DEWEY PL,29.446705,-98.485213,,,,,,0
45467,45467,S. HACKBERRY & BERKSHIRE,,29.398086,-98.473538,,,,,,0
62983,62983,BABCOCK IN FRONT OF 602,,29.477016,-98.548313,,,,,,0
31997,31997,GEN. MCMULLEN & CULEBRA,,29.447861,-98.551781,,,,,,0
19677,19677,GEN. MCMULLEN & CASTROVILLE,,29.416393,-98.555853,,,,,,0
59737,59737,GEN. MCMULLEN & W. THOMPSON,,29.396701,-98.558079,,,,,,0
59773,59773,W. THOMPSON FAR-SIDE OF KENNEDY H.S,,29.396423,-98.555638,,,,,,0
59736,59736,GEN. MCMULLEN & W. THOMPSON,S GENERAL MCMULLEN DR,29.396557,-98.558038,,,,,,0
19676,19676,GEN. MCMULLEN & CASTROVILLE,,29.416104,-98.555873,,,,,,0
41196,41196,GEN. MCMULLEN & CULEBRA,N General Mcmullen Dr & W Laurel St,29.447481,-98.551731,,,,,,0
64987,64987,WURZBACH & FREDERICKSBURG RD.,,29.520293,-98.573189,,,,,,0
55427,55427,WURZBACH & BANDERA,,29.484685,-98.604506,,,,,,0
55426,55426,WURZBACH & BANDERA,,29.484317,-98.604678,,,,,,0
64986,64986,WURZBACH & FREDERICKSBURG RD.,,29.51958,-98.573653,,,,,,0
86967,86967,W.W. WHITE RD. & E. HOUSTON,S Ww White Rd & E Houston St,29.424486,-98.405595,,,,,,0
56189,56189,SW MILITARY DR. & S. ZARZAMORA,,29.356665,-98.53464,,,,,,0
92776,92776,S.W. MILITARY DR. & FIVE PALMS,W Military Dr & Five Palms Dr,29.377071,-98.613614,,,,,,0
56183,56183,SW MILITARY DR. & S. ZARZAMORA,,29.356629,-98.533651,,,,,,0
67153,67153,MILITARY DR & CITY BASE LANDING,,29.351655,-98.435852,,,,,,0
14387,14387,WEST BET AFTERGLOW & BLANCO,,29.547577,-98.507606,,,,,,0
28696,28696,BELAIR & ANCHOR,,29.540732,-98.525855,,,,,,0
44727,44727,VANCE JACSON & SINSONTE,,29.530781,-98.542799,,,,,,0
81677,81677,CALLAGHAN & IH-10 W ACCESS RD.,Callaghan Rd & Pinebrook Dr,29.512028,-98.55177,,,,,,0
52256,52256,CINNAMON TRAIL & CINNAMON HILL,,29.528071,-98.582168,,,,,,0
61736,61736,VANCE JACKSON & DE ZAVALA,Vance Jackson Rd & De Zavala Rd,29.564624,-98.585917,,,,,,0
61623,61623,DE ZAVALA & VANCE JACKSON,,29.564773,-98.586215,,,,,,0
28779,28779,LOCKHILL-SELMA BET. BELAIR & MIL. H,,29.540253,-98.526969,,,,,,0
14396,14396,WEST BET BLANCO & AFTERGLOW,,29.54681,-98.508317,,,,,,0
89986,89986,HORIZON HILL & CALLAGHAN,Horizon Hill Blvd & Callaghan Rd,29.510077,-98.553955,,,,,,0
92329,92329,SPRING TIME & BABCOCK,,29.552227,-98.615907,,,,,,0
91237,91237,HORIZON HILL & CALLAGHAN,,29.510258,-98.554509,,,,,,0
19576,19576,HORN & SPRING TIME DR,,29.5455,-98.620559,,,,,,0
75223,75223,ECKHERT & HUEBNER,Eckhert Rd & Border Trl,29.519159,-98.605953,,,,,,0
46253,46253,EVERS & WURZBACH,,29.490304,-98.599985,,,,,,0
89787,89787,BOWENS CROSSING & WEYBRIDGE,,29.51244,-98.685203,,,,,,0
89576,89576,BOWENS CROSSING & ARDASH LN.,,29.513216,-98.685071,,,,,,0
56157,56157,BABCOCK & HAUSMAN RD.,,29.572151,-98.631588,,,,,,0
83887,83887,CEDAR PARK OPPOSITE 11222 (SCOBIE E,,29.554203,-98.641306,,,,,,0
48617,48617,TEZEL & BRAUN RD.,,29.531803,-98.658851,,,,,,0
57637,57637,TIMBERHILL & GRISSOM,Grissom Rd & Timberhill Dr,29.483479,-98.629997,,,,,,0
57636,57636,TIMBERHILL & GRISSOM,,29.483508,-98.629927,,,,,,0
28476,28476,HUEBNER & BANDERA,,29.499269,-98.624078,,,,,,0
83976,83976,CEDAR PARK & CASCADE OAK,,29.553652,-98.641914,,,,,,0
31693,31693,TIMBER PATH & CLIFF BRIER,,29.493276,-98.681133,,,,,,0
83456,83456,MEADOW WAY & TIMBER CREEK,,29.427321,-98.6433,,,,,,0
78943,78943,BROWNLEAF & MILITARY DR. W.,,29.429548,-98.625675,,,,,,0
85757,85757,SPRINGVALE & VALLEY HI,,29.382283,-98.636053,,,,,,0
12239,12239,OLD VALLEY HI & RAY ELLISON,,29.375894,-98.647738,,,,,,0
33556,33556,RAY ELLISON & MEADOW VALLEY,,29.364782,-98.64336,,,,,,0
78949,78949,BROWNLEAF & MILITARY DR. WEST,,29.429566,-98.625675,,,,,,0
83499,83499,TIMBER CREEK & PALM GROVE,,29.427394,-98.642425,,,,,,0
88267,88267,FILLMORE & DUGAS,,29.428305,-98.68936,,,,,,0
17433,17433,MARBACH & W. MILITARY DR.,,29.41773,-98.629888,,,,,,0
12177,12177,FIVE PALMS IN FRONT OF 5715,,29.376627,-98.614406,,,,,,0
52213,52213,RAY ELLISON & FIVE PALMS,,29.356185,-98.61568,,,,,,0
72357,72357,FIVE PALMS & PEARSALL RD.,,29.346131,-98.614984,,,,,,0
95576,95576,PORT VICTORIA & TRADING POST,,29.335315,-98.603202,,,,,,0
72356,72356,FIVE PALMS & PEARSALL RD.,,29.346095,-98.614912,,,,,,0
12176,12176,FIVE PALMS IN FRONT OF 5706,,29.376799,-98.614376,,,,,,0
17536,17536,W. MILITARY DR. IN FRONT OF MARBACH,,29.417306,-98.62965,,,,,,0
15439,15439,MARBACH & INGRAM RD.,,29.417857,-98.669141,,,,,,0
66889,66889,BASIN FIELD OPPOSITE 10242,,29.391375,-98.695507,,,,,,0
33233,33233,ADAMS HILL & FARMSVILLE,,29.409361,-98.676507,,,,,,0
76627,76627,CREEK BEND & SWEET MAIDEN,,29.344695,-98.601394,,,,,,0
53219,53219,SKOLOUT & GUNSMOKE,Skolout Dr & Gunsmoke Dr,29.399953,-98.644784,,,,,,0
12453,12453,MARBACH & HARNESS,,29.417804,-98.647052,,,,,,0
43817,43817,GUNSMOKE BETWEEN LANDING & SKOLOU,,29.400869,-98.645008,,,,,,0
16336,16336,ELLISON DR. & WESTOVER HILLS,N Ellison Dr & Westover Hills Blvd,29.461438,-98.697015,,,,,,0
16327,16327,ELLISON DR. & WESTOVER HILLS,,29.461539,-98.69731,,,,,,0
69173,69173,RITTIMAN & FM 78,Rittiman Rd & Unnamed,29.48037,-98.361677,,,,,,0
46183,46183,MIDCROWN & CASTLE CROSS,,29.49019,-98.37206,,,,,,0
84859,84859,WALZEM & MIDCROWN,Midcrown Dr & Fenwick Dr,29.510348,-98.380464,,,,,,0
81699,81699,MONTGOMERY & NEW WORLD,Montgomery Rd & Banbury Dr,29.511023,-98.357391,,,,,,0
38296,38296,BEECH TRAIL & SUNSHINE TRAIL,,29.493979,-98.331973,,,,,,0
81693,81693,MONTGOMERY & NEW WORLD,,29.510935,-98.35742,,,,,,0
84853,84853,WALZEM & MIDCROWN,,29.510281,-98.380534,,,,,,0
27199,27199,RANDOLPH & O'CONNOR,Randolph Blvd & Parkway 35 Dr,29.542391,-98.367432,,,,,,0
24117,24117,GLEN MONT & OLD WALZEM RD.,,29.499215,-98.349434,,,,,,0
24116,24116,GLEN MONT & OLD WALZEM RD.,,29.499251,-98.34931,,,,,,0
28113,28113,RANDOLPH & O'CONNOR,Randolph Blvd & Parkway 35 Dr,29.542318,-98.367432,,,,,,0
27653,27653,BASSE & BROADWAY (NACOGDOCHES),E Basse Rd & Broadway St,29.497034,-98.466904,,,,,,0
13237,13237,JONES-MALTSBERGER & OBLATE,,29.503502,-98.481816,,,,,,0
22177,22177,HENDERSON PASS & THOUSAND OAKS,Henderson Pass & Thousand Oaks Dr,29.586217,-98.451043,,,,,,0
33213,33213,CINCINNATI & BANDERA,,29.451761,-98.548208,,,,,,0
86926,86926,S. FRIO IN FRONT OF UTSA DOWNTOWN C,S Frio St & Durango St,29.423508,-98.504073,,,,,,0
47947,47947,SAN PEDRO OPPOSITE EVERGREEN,,29.44285,-98.499342,,,,,,0
54267,54267,BROADWAY & GRAYSON,BROADWAY ST & PEARL PKY,29.443466,-98.47667,,,,,,0
89123,89123,JACKSON-KELLER IN FRONT OF 1914,,29.514444,-98.525251,,,,,,0
89483,89483,JACKSON-KELLER OPPOSITE GLADIOLA,,29.513082,-98.523115,,,,,,0
81753,81753,JACKSON-KELLER OPPOSITE SHALIMAR,,29.511658,-98.521062,,,,,,0
81993,81993,JACKSON-KELLER OPPOSITE 1601,,29.510341,-98.518999,,,,,,0
92253,92253,JACKSON-KELLER OPPOSITE COTILLION,,29.508962,-98.516987,,,,,,0
93523,93523,JACKSON-KELLER IN FRONT OF LEE H.S.,,29.507727,-98.515078,,,,,,0
94913,94913,JACKSON-KELLER & VIEWRIDGE,,29.505684,-98.51182,,,,,,0
14353,14353,JACKSON-KELLER & GREEN MEADOW,,29.504595,-98.510181,,,,,,0
14593,14593,JACKSON-KELLER & BLANCO,,29.503142,-98.507982,,,,,,0
15917,15917,BLANCO OPP. NIMITZ MIDDLE SCHOOL,Blanco Rd & Arroya Vista Dr,29.500976,-98.507826,,,,,,0
24389,24389,DRESDEN & SCOTLAND,Dresden Dr & Scotland Dr,29.499072,-98.509351,,,,,,0
24329,24329,DRESDEN & BROOKVIEW,Dresden Dr & Harkavy Dr,29.499152,-98.511187,,,,,,0
23339,23339,DRESDEN & ALLENA,Dresden Dr & Allena Dr,29.499169,-98.514167,,,,,,0
23657,23657,ALLENA OPPOSITE GILBERT,Allena Dr & Gilbert Ln,29.497464,-98.513939,,,,,,0
33157,33157,ALLENA & MARCHMONT,Allena Dr & Marchmont Ln,29.495948,-98.513711,,,,,,0
33357,33357,ALLENA & BURWOOD,Allena Dr & Marchmont Ln,29.494243,-98.513896,,,,,,0
33657,33657,ALLENA & WEIZMANN,Allena Dr & Edgebrook Ln,29.492385,-98.513915,,,,,,0
43147,43147,ALLENA & GEN. KRUEGER,Allena Dr & General Krueger Blvd,29.490598,-98.513914,,,,,,0
43447,43447,ALLENA & BASSE RD.,Allena Dr & Basse Rd,29.488812,-98.513892,,,,,,0
42579,42579,BASSE & ROSE HILL,,29.488789,-98.516224,,,,,,0
41599,41599,BASSE & OLYMPIA,,29.488779,-98.51875,,,,,,0
41957,41957,NEER & LA MANDA,Neer Ave & La Manda Blvd,29.48667,-98.520748,,,,,,0
51357,51357,NEER & EL MONTE,Neer Ave & El Monte Blvd,29.485055,-98.520747,,,,,,0
51557,51557,NEER & ALHAMBRA,Neer Ave & Alhambra St,29.483431,-98.520745,,,,,,0
51857,51857,NEER BETWEEN HERMINE & THORAIN,Neer Ave & Thorain Blvd,29.48215,-98.520744,,,,,,0
61157,61157,NEER & MARIPOSA,Neer Ave & Thorain Blvd,29.480986,-98.520744,,,,,,0
61293,61293,MARIPOSA & SANTA PAULA,W Mariposa Dr & Neer Ave,29.480797,-98.519135,,,,,,0
62253,62253,MARIPOSA & CATALINA,W Mariposa Dr & Santa Paula Ave,29.480798,-98.517403,,,,,,0
63123,63123,MARIPOSA IN FRONT OF 1228,W Mariposa Dr & Axtell St,29.480556,-98.515001,,,,,,0
63263,63263,MARIPOSA & CAPITOL,W Mariposa Dr & Capital St,29.480557,-98.513176,,,,,,0
64123,64123,MARIPOSA & MICHIGAN,W Mariposa Dr & Michigan Ave,29.480557,-98.511444,,,,,,0
64327,64327,MICHIGAN & WILDWOOD,Michigan Ave & W Mariposa Dr,29.479782,-98.511309,,,,,,0
64727,64727,MICHIGAN & CLOWER,Michigan Ave & Clower St,29.477959,-98.511318,,,,,,0
74127,74127,MICHIGAN & LEE HALL,Michigan Ave & Alametos St,29.476118,-98.511348,,,,,,0
74527,74527,MICHIGAN & FRESNO,Michigan Ave & Edison Dr,29.47435,-98.511368,,,,,,0
73579,73579,FRESNO OPPOSITE CAPITOL (SPRR),Fresno St & Capital St,29.474232,-98.513399,,,,,,0
72419,72419,FRESNO & SANTA PAULA,,29.474433,-98.51897,,,,,,0
71657,71657,NEER & OLMOS,Neer Ave & Fresno St,29.473705,-98.520862,,,,,,0
71757,71757,NEER & SACRAMENTO,Neer Ave & Sacramento St,29.47292,-98.520862,,,,,,0
81257,81257,NEER & SANTA ANNA,Neer Ave & Santa Anna St,29.471278,-98.52086,,,,,,0
81457,81457,NEER & PASADENA,Neer Ave & Pasadena St,29.469608,-98.52087,,,,,,0
81857,81857,NEER & RIDGEWOOD,Neer Ave & San Francisco St,29.468011,-98.520868,,,,,,0
91257,91257,NEER & HILDEBRAND,Neer Ave & Buckeye Ave,29.466595,-98.520867,,,,,,0
92213,92213,HILDEBRAND & NEER (PETRO PANTRY),,29.466475,-98.518935,,,,,,0
93243,93243,HILDEBRAND & JERRY (SPRR),,29.466432,-98.513997,,,,,,0
36827,36827,N. FLORES & HESS,N Flores St & Hess St,29.448548,-98.503808,,,,,,0
46337,46337,N. FLORES & HICKMAN,N Flores St & W Myrtle St,29.446121,-98.503838,,,,,,0
46637,46637,N. FLORES OPPOSITE MYRTLE,N Flores St & Hickman St,29.445065,-98.503837,,,,,,0
56427,56427,N. LAREDO & LOMBRANO,,29.441008,-98.503969,,,,,,0
55887,55887,N. LAREDO & IH-10 W (CYPRESS),,29.43932,-98.504978,,,,,,0
65167,65167,FRIO & RIVAS,,29.437976,-98.506224,,,,,,0
65467,65467,FRIO BETWEEN DELGADO & ARBOR,,29.436306,-98.506461,,,,,,0
72396,72396,BROADWAY & BROOKLYN,,29.431688,-98.483589,,,,,,0
63696,63696,BROADWAY & JONES,BROADWAY AVE & E JONES AVE,29.435067,-98.479688,,,,,,0
89626,89626,N. NEW BRAUNFELS & BURR RD.,,29.468082,-98.460707,,,,,,0
89336,89336,N. NEW BRNFLS. OPP. HARRIGAN CT.,,29.470299,-98.460237,,,,,,0
79866,79866,N. NEW BRAUNFELS & ELIZABETH,,29.472194,-98.459588,,,,,,0
79356,79356,N. NEW BRAUNFELS & GARRATY,,29.474864,-98.459278,,,,,,0
79156,79156,N. NEW BRAUNFELS & ARCADIA,,29.475857,-98.459278,,,,,,0
69666,69666,N. NEW BRAUNFELS & BARTLET,,29.477869,-98.459267,,,,,,0
69256,69256,N. NEW BRAUNFELS & ZAMBRANO,,29.480088,-98.459277,,,,,,0
59856,59856,N. NEW BRNFLS. & CANTERBURY HILL,,29.481985,-98.459263,,,,,,0
29966,29966,N. NEW BRAUNFELS & EISENHAUER,,29.495609,-98.459294,,,,,,0
99686,99686,NACOGDOCHES & ROCKHILL,,29.506704,-98.458034,,,,,,0
91226,91226,NACOGDOCHES & CAVE LANE,,29.508655,-98.456787,,,,,,0
81956,81956,NACOGDOCHES OPPOSITE EL RANCHO,,29.510225,-98.455807,,,,,,0
81496,81496,NACOGDOCHES & COUNTRY LANE,,29.512459,-98.454423,,,,,,0
82126,82126,NACOG BET LABURNUM/TREASURE WAY,,29.513586,-98.45369,,,,,,0
72486,72486,NACOGDOCHES OPPOSITE CHEEVER,,29.51714,-98.451007,,,,,,0
73146,73146,NACOGDOCHES & DANBURY,,29.519071,-98.44915,,,,,,0
63776,63776,NACOGDOCHES & OLD MOSS,,29.520387,-98.44787,,,,,,0
64436,64436,NACOGDOCHES & WOODBURY,,29.522182,-98.446095,,,,,,0
55816,55816,NACOGDOCHES OPPOSITE LOVELACE,,29.524752,-98.442907,,,,,,0
56616,56616,NACOGDOCHES & FOREST OAK DR.,,29.526095,-98.43944,,,,,,0
56466,56466,NACOGDOCHES OPPOSITE ASTRONAUT,,29.527051,-98.437108,,,,,,0
57326,57326,NACOGDOCHES & SALADO PKWY.,,29.527877,-98.435153,,,,,,0
48916,48916,NACOGDOCHES & SALADO CLIFFS,,29.529097,-98.432259,,,,,,0
38896,38896,NACOGDOCHES OPPOSITE WAYWARD,,29.533992,-98.42893,,,,,,0
39646,39646,NACOGDOCHES OPPOSITE STARCREST,,29.535175,-98.42752,,,,,,0
31226,31226,NACOGDOCHES OPPOSITE HILLPOINT,,29.537355,-98.424678,,,,,,0
21786,21786,NACOGDOCHES IN FRONT OF 11110,Nacogdoches Rd & Perrin Central Blvd,29.539727,-98.422211,,,,,,0
22436,22436,NACOGDOCHES & IOTA,,29.541572,-98.42035,,,,,,0
95473,95473,THOUSAND OAKS & PERRIN BEITEL,Thousand Oaks Dr & Nacogdoches Rd,29.550645,-98.407543,,,,,,0
22437,22437,NACOGDOCHES OPPOSITE IOTA,,29.541802,-98.420191,,,,,,0
31227,31227,NACOGDOCHES & HILLPOINT,,29.537709,-98.424351,,,,,,0
39647,39647,NACOGDOCHES & STARCREST,,29.535362,-98.427331,,,,,,0
38897,38897,NACOGDOCHES & WAYWARD,,29.533976,-98.429006,,,,,,0
48717,48717,NACOGDOCHES & TITAN,,29.529464,-98.431831,,,,,,0
56377,56377,NACOGDOCHES & ASTRONAUT,Nacogdoches Rd & Astronaut Dr,29.527101,-98.437041,,,,,,0
55817,55817,NACOGDOCHES & LOVELACE,,29.524861,-98.442762,,,,,,0
64437,64437,NACOGDOCHES & WOODBURY,,29.522583,-98.445749,,,,,,0
63777,63777,NACOGDOCHES & HAVERFORD,,29.520608,-98.447699,,,,,,0
63937,63937,NACOGDOCHES & DANBURY,,29.519164,-98.449102,,,,,,0
82127,82127,NACOGDOCHES & LINDENWOOD,,29.514488,-98.453184,,,,,,0
82227,82227,NACOG. BET. TREAS. WAY/LABURNUM,,29.5134,-98.453847,,,,,,0
81587,81587,NACOGDOCHES & OAKHURST,,29.51217,-98.454649,,,,,,0
81957,81957,NACOGDOCHES & EL RANCHO,,29.510402,-98.455743,,,,,,0
91327,91327,NACOGDOCHES & CAMELLIA DR.,,29.508607,-98.456868,,,,,,0
99687,99687,NACOGDOCHES OPPOSITE ROCKHILL,,29.507434,-98.457631,,,,,,0
99867,99867,NACOGDOCHES OPPOSITE 1910,,29.506225,-98.458395,,,,,,0
39847,39847,N. NEW BRAUNFELS & RETAMA PL,,29.491502,-98.459357,,,,,,0
59757,59757,N. NEW BRAUNFELS & MONTCLAIR,,29.482046,-98.459328,,,,,,0
59967,59967,N. NEW BRAUNFELS & KAMPMANN,,29.480206,-98.459339,,,,,,0
69767,69767,N. NEW BRAUNFELS & CHICHESTER,,29.477797,-98.45936,,,,,,0
79167,79167,N. NEW BRAUNFELS & ARCADIA,,29.476191,-98.45937,,,,,,0
79357,79357,N. NEW BRAUNFELS & GROVE PL.,,29.475009,-98.45937,,,,,,0
79857,79857,N. NEW BRAUNFELS & ELIZABETH,,29.472302,-98.459649,,,,,,0
89337,89337,N. NEW BRAUNFELS & HARRIGAN CT.,,29.470326,-98.46034,,,,,,0
89627,89627,N. NEW BRAUNFELS & BURR RD.,,29.46826,-98.460764,,,,,,0
89917,89917,N. NEW BRAUNFELS & DAVIS CT.,,29.466807,-98.46096,,,,,,0
99217,99217,N. NEW BRAUNFELS & HILDEBRAND,,29.465869,-98.46096,,,,,,0
54647,54647,BROADWAY & CASA BLANCA,,29.439956,-98.477865,,,,,,0
63697,63697,BROADWAY & JONES,,29.435544,-98.479524,,,,,,0
65976,65976,FRIO OPPOSITE LEAL,,29.433816,-98.505708,,,,,,0
65146,65146,FRIO OPPOSITE RIVAS,,29.437786,-98.506049,,,,,,0
56126,56126,N. FLORES & EVERGREEN,N Flores St & Loop St,29.442656,-98.503795,,,,,,0
46636,46636,N. FLORES & MYRTLE,N Flores St & W Myrtle St,29.44483,-98.503775,,,,,,0
92119,92119,HILDEBRAND & SANTA PAULA,,29.46652,-98.519028,,,,,,0
81856,81856,NEER & RIDGEWOOD,,29.467801,-98.520781,,,,,,0
81456,81456,NEER & PASADENA,,29.469443,-98.520782,,,,,,0
81256,81256,NEER & SANTA ANNA,,29.471058,-98.520772,,,,,,0
71756,71756,NEER & SACRAMENTO,,29.4727,-98.520763,,,,,,0
71693,71693,OLMOS & SANTA PAULA,,29.473585,-98.519176,,,,,,0
73463,73463,FRESNO & SPRR TRACKS,,29.474146,-98.513547,,,,,,0
73426,73426,MICHIGAN BET. FRESNO & EDISON,,29.474689,-98.511258,,,,,,0
74226,74226,MICHIGAN & LEE HALL,,29.475907,-98.511249,,,,,,0
64726,64726,MICHIGAN & CLOWER,Michigan Ave & Clower St,29.477779,-98.511267,,,,,,0
64326,64326,MICHIGAN & WILDWOOD,Michigan Ave & W Wildwood Dr,29.479637,-98.511257,,,,,,0
64116,64116,MICHIGAN & MARIPOSA,Michigan Ave & W Wildwood Dr,29.480521,-98.511237,,,,,,0
63269,63269,MARIPOSA & CAPITOL,,29.480688,-98.512952,,,,,,0
63129,63129,MARIPOSA IN FRONT OF 1229,,29.480669,-98.515055,,,,,,0
62259,62259,MARIPOSA & CATALINA,,29.480921,-98.5172,,,,,,0
61299,61299,MARIPOSA & SANTA PAULA,,29.480947,-98.518942,,,,,,0
61159,61159,MARIPOSA & NEER,,29.480947,-98.520664,,,,,,0
51956,51956,NEER & THORAIN,,29.481668,-98.520757,,,,,,0
51566,51566,NEER & ALHAMBRA,,29.483247,-98.520737,,,,,,0
51356,51356,NEER & EL MONTE,,29.48488,-98.520749,,,,,,0
41956,41956,NEER & LA MANDA,,29.486405,-98.520718,,,,,,0
42573,42573,BASSE OPPOSITE ROSE HILL,Basse Rd & Rosehill Dr,29.488576,-98.516511,,,,,,0
43446,43446,ALLENA BET. BASSE & LAURELWOOD,Allena Dr & Basse Rd,29.4891,-98.513831,,,,,,0
43146,43146,ALLENA & GEN. KRUEGER,,29.490405,-98.513802,,,,,,0
33656,33656,ALLENA & WEIZMANN,,29.492281,-98.513803,,,,,,0
33356,33356,ALLENA & BURWOOD,,29.494041,-98.513793,,,,,,0
33156,33156,ALLENA & MARCHMONT,,29.495746,-98.513608,,,,,,0
23656,23656,ALLENA & GILBERT,,29.497397,-98.513784,,,,,,0
23336,23336,ALLENA & DRESDEN,,29.499003,-98.514373,,,,,,0
24323,24323,DRESDEN & BROOKVIEW,,29.499085,-98.511465,,,,,,0
14499,14499,JACKSON-KELLER IN FRONT OF 1005,,29.503398,-98.508208,,,,,,0
14359,14359,JACKSON-KELLER IN FRONT OF 1015,,29.504471,-98.509817,,,,,,0
94919,94919,JACKSON-KELLER OPPOSITE VIEWRIDGE,,29.505698,-98.511694,,,,,,0
93529,93529,JACKSON-KELLER/CASTLE TERR.  APTS.,,29.507997,-98.515326,,,,,,0
92279,92279,JACKSON-KELLER & COTILLION,,29.509337,-98.517285,,,,,,0
81999,81999,JACKSON-KELLER IN FRONT OF 1601,,29.510233,-98.518751,,,,,,0
81759,81759,JACKSON-KELLER & SHALIMAR,,29.511613,-98.520835,,,,,,0
89489,89489,JACKSON-KELLER & GLADIOLA,,29.513091,-98.523002,,,,,,0
79919,79919,JACKSON-KELLER & WEST AVE.,,29.514931,-98.525809,,,,,,0
78769,78769,JACKSON-KELLER & LOOP 410,,29.516048,-98.527511,,,,,,0
59286,59286,PICKWELL & DEVON,Pickwell Dr & Devon Ave,29.356008,-98.426601,,,,,,0
49686,49686,PICKWELL & PORTSMOUTH,Pickwell Dr & Portsmouth Dr,29.357588,-98.426611,,,,,,0
49486,49486,PICKWELL & UTOPIA,Pickwell Dr & Utopia Rd,29.359465,-98.426631,,,,,,0
49186,49186,PICKWELL & KATE SCHENCK,Pickwell Dr & Kate Schenck Ave,29.361198,-98.426661,,,,,,0
39776,39776,PICKWELL & NASH,Pickwell Dr & Nash Blvd,29.362886,-98.426681,,,,,,0
29976,29976,PICKWELL AT HARRY ROGERS MIDDL,Pickwell Dr & Banbridge Ave,29.366667,-98.427153,,,,,,0
28879,28879,GALWAY OPPOSITE BELFORD,,29.367221,-98.430388,,,,,,0
38267,38267,BELFORD & GAYLE,,29.365498,-98.431047,,,,,,0
38357,38357,BELFORD & PALFREY,,29.364668,-98.431449,,,,,,0
37439,37439,PALFREY & PICKWELL,,29.364579,-98.435743,,,,,,0
36186,36186,DOLLARHIDE & BOB BILLA,Dollarhide Dr & Bob Billa Dr,29.365867,-98.437017,,,,,,0
25496,25496,DOLLARHIDE & HOWERTON,Dollarhide Ave & Howerton Dr,29.368873,-98.44028,,,,,,0
25196,25196,DOLLARHIDE & POOL,Dollarhide Ave & Pool Dr,29.370569,-98.440516,,,,,,0
15796,15796,DOLLARHIDE & COLGLAZIER,Dollarhide Ave & Colglazier Ave,29.372356,-98.440279,,,,,,0
15486,15486,DOLLARHIDE & METZ,Dollarhide Ave & Metz Ave,29.374008,-98.440701,,,,,,0
95966,95966,DOLLARHIDE & PRESTWICK,Dollarhide Ave & Prestwick Blvd,29.375768,-98.441544,,,,,,0
95646,95646,DOLLARHIDE & E. SOUTHCROSS,Dollarhide Ave & E Southcross Blvd,29.377618,-98.442316,,,,,,0
95346,95346,DOLLARHIDE & GLAMIS,Dollarhide Ave & Glamis Ave,29.37945,-98.442573,,,,,,0
95126,95126,DOLLARHIDE & CRAVENS,Dollarhide Ave & Cravens Ave,29.380343,-98.443129,,,,,,0
85726,85726,DOLLARHIDE & KASHMUIR,Dollarhide Ave & Mcdougal Ave,29.382121,-98.443149,,,,,,0
85216,85216,SKYRIDGE & GLOVER,Skyridge Ave & Glover St,29.38445,-98.443643,,,,,,0
74129,74129,VILLAREAL & HALLIE,Villareal St & Anita St,29.390325,-98.446588,,,,,,0
63929,63929,STEVES & ADELE,Steves Ave & Adele St,29.390704,-98.450316,,,,,,0
62869,62869,STEVES & WALTERS,Steves Ave & Adele St,29.390804,-98.452643,,,,,,0
62819,62819,STEVES & MITTMAN,Steves Ave & Candler Ave,29.391021,-98.454363,,,,,,0
61949,61949,STEVES & GEVERS,Steves Ave & S Gevers St,29.391021,-98.45666,,,,,,0
69979,69979,STEVES & NOPAL,Steves Ave & Nopal St,29.391021,-98.458874,,,,,,0
69919,69919,STEVES & S. NEW BRAUNFELS,Steves Ave & S New Braunfels Ave,29.391021,-98.46112,,,,,,0
67999,67999,STEVES & PALMETTO,Steves Ave & S Palmetto Ave,29.39103,-98.465342,,,,,,0
66979,66979,STEVES & PINE,Steves Ave & Piedmont Ave,29.391021,-98.469503,,,,,,0
65899,65899,STEVES & S. HACKBERRY,,29.391065,-98.473353,,,,,,0
65176,65176,S. HACKBERRY OPPOSITE HAMPSHIRE,S Hackberry St & Hamshire Ave,29.394458,-98.473428,,,,,,0
45676,45676,S. HACKBERRY & HIGH,,29.401488,-98.473486,,,,,,0
45276,45276,S. HACKBERRY & ESSEX,,29.403834,-98.473208,,,,,,0
34596,34596,CHERRY & FLORIDA,S Cherry St & Mississippi St,29.406704,-98.476118,,,,,,0
34519,34519,FLORIDA & HOEFGEN,Florida St & Hoefgen Ave,29.406803,-98.479126,,,,,,0
32399,32399,FLORIDA & STAFFEL,Florida St & Staffel St,29.407759,-98.482917,,,,,,0
32259,32259,FLORIDA & LABOR,,29.408364,-98.484334,,,,,,0
22786,22786,LABOR & DEVINE,Labor St & Sadie St,29.410357,-98.483773,,,,,,0
22476,22476,LABOR OPPOSITE CALLAGHAN AVE.,Labor St & Callaghan Ave,29.412189,-98.483701,,,,,,0
22276,22276,LABOR OPPOSITE BARRERA,Labor St & Riddle St,29.413669,-98.484083,,,,,,0
22149,22149,BARRERA IN FRONT OF VICTORIA P,Barrera St & Camargo St,29.413976,-98.484927,,,,,,0
12819,12819,BARRERA & INDIANOLA,Barrera St & Indianola St,29.415058,-98.486246,,,,,,0
11569,11569,BARRERA & S. ALAMO,Barrera St & S Alamo St,29.416745,-98.488359,,,,,,0
78899,78899,MARTIN & MAIN,,29.429379,-98.493877,,,,,,0
35716,35716,BLANCO & ASHBY,,29.449011,-98.507898,,,,,,0
35316,35316,BLANCO & RUSSELL,,29.450942,-98.507868,,,,,,0
25916,25916,BLANCO & WOODLAWN,,29.452791,-98.507868,,,,,,0
25516,25516,BLANCO & W. MAGNOLIA,,29.454722,-98.507869,,,,,,0
15716,15716,BLANCO & W. SUMMIT,,29.458557,-98.50786,,,,,,0
15216,15216,BLANCO & FULTON,,29.461426,-98.507851,,,,,,0
95426,95426,BLANCO & ROSEWOOD,,29.46472,-98.507821,,,,,,0
85526,85526,BLANCO BTWN ELMWOOD & WESTWOOD,,29.469168,-98.507833,,,,,,0
85126,85126,BLANCO & SANTA MONICA,,29.471505,-98.507865,,,,,,0
75526,75526,BLANCO & FRESNO,,29.474004,-98.507825,,,,,,0
65326,65326,BLANCO & WILDWOOD,,29.479607,-98.507837,,,,,,0
55116,55116,BLANCO OPPOSITE SAN ANGELO,,29.48558,-98.507809,,,,,,0
35416,35416,BLANCO & BURWOOD,,29.494295,-98.507792,,,,,,0
25526,25526,BLANCO BETWEEN BURWOOD & GILBERT,,29.496551,-98.507792,,,,,,0
15916,15916,BLANCO FRONT OF NIMITZ MID. SCHOOL,,29.501116,-98.507753,,,,,,0
15516,15516,BLANCO & JACKSON-KELLER,,29.502794,-98.507537,,,,,,0
15236,15236,BLANCO & OBLATE,,29.50422,-98.506774,,,,,,0
95736,95736,BLANCO & ENTRANCE TO GROTTO,,29.506096,-98.506765,,,,,,0
95436,95436,BLANCO OPPOSITE RIVIERA,,29.508099,-98.506765,,,,,,0
85836,85836,BLANCO & BARCHESTER,Blanco Rd & Barchester Dr,29.510612,-98.506779,,,,,,0
85536,85536,BLANCO & LANGTON,,29.512421,-98.506808,,,,,,0
85236,85236,BLANCO & CORNWALL,Blanco Rd & Monfort Dr,29.514158,-98.506781,,,,,,0
75636,75636,BLANCO & NE ENT. TO PARK NORTH,,29.516101,-98.506768,,,,,,0
65646,65646,BLANCO & NE LOOP 410 W. ACCESS RD.,BLANCO RD,29.521607,-98.506046,,,,,,0
65566,65566,BLANCO IN FRONT OF 7220,Blanco Rd & Unnamed,29.523748,-98.504837,,,,,,0
55676,55676,BLANCO OPPOSITE NORTHCREST,,29.525746,-98.50508,,,,,,0
55756,55756,BLANCO & MCCARTY,,29.526837,-98.505204,,,,,,0
55266,55266,BLANCO OPPOSITE MT. KISKO,,29.529589,-98.505587,,,,,,0
45656,45656,BLANCO OPPOSITE MELISSA,,29.530554,-98.505701,,,,,,0
45356,45356,BLANCO & HALTOWN,Blanco Rd & Haltown Dr,29.532445,-98.505935,,,,,,0
35856,35856,BLANCO & PRESIDENT,,29.534388,-98.506156,,,,,,0
35546,35546,BLANCO OPPOSITE MOREY PEAK,,29.536012,-98.506312,,,,,,0
35246,35246,BLANCO OPPOSITE CERRO ALTO,,29.537672,-98.506446,,,,,,0
25746,25746,BLANCO & TAMMY,Blanco Rd & Tammy Dr,29.539806,-98.506444,,,,,,0
15926,15926,BLANCO & PATRICIA,,29.543797,-98.507191,,,,,,0
14366,14366,BLANCO BETWEEN WEST AVE & PARLIAMEN,,29.547684,-98.50968,,,,,,0
94776,94776,PARLIAMENT IN FRONT - PAR.BEND APTS,,29.549868,-98.508711,,,,,,0
72416,72416,BLANCO OPP PHIL HARDBERGER PARK,Blanco Rd & Vista Del Norte,29.561459,-98.518778,,,,,,0
61466,61466,BLANCO OPPOSITE LONGFIELD,Blanco Rd & Longfield Dr,29.565581,-98.519968,,,,,,0
33627,33627,BLANCO & BITTERS,,29.578652,-98.514267,,,,,,0
43617,43617,BLANCO & CADILLAC DR.,,29.573455,-98.515068,,,,,,0
52417,52417,BLANCO & CHURCHILL ESTATES BLVD.,,29.570941,-98.517703,,,,,,0
72417,72417,BLANCO AT THE ENTRANCE TO PHIL HARD,,29.562239,-98.519546,,,,,,0
95847,95847,WEST AVE. IN FRONT OF WEST PLAZA,West Ave & W Silver Sands Dr,29.549341,-98.505779,,,,,,0
25127,25127,BLANCO & SERENADE,,29.54322,-98.507005,,,,,,0
25737,25737,BLANCO OPPOSITE TAMMY,,29.539963,-98.506519,,,,,,0
35237,35237,BLANCO & CERRO ALTO,,29.537735,-98.506498,,,,,,0
35547,35547,BLANCO & MOREY PEAK,,29.536075,-98.506373,,,,,,0
35947,35947,BLANCO & EVENING DUN,,29.534361,-98.506239,,,,,,0
45357,45357,BLANCO & HALTOWN,,29.532602,-98.506021,,,,,,0
45657,45657,BLANCO & MELISSA,,29.530581,-98.505763,,,,,,0
55267,55267,BLANCO & MT. KISKO,,29.528696,-98.505494,,,,,,0
55567,55567,BLANCO & BRIARCLIFF,,29.526792,-98.505256,,,,,,0
65627,65627,BLANCO IN FRONT OF CASTLE HILL,,29.524375,-98.504977,,,,,,0
75237,75237,BLANCO IN FRONT OF 6701 (WEDGEWOOD),Blanco Rd & Central Park Mall,29.517478,-98.506845,,,,,,0
75637,75637,BLANCO & RECTOR,Blanco Rd & W Rector Dr,29.516666,-98.506844,,,,,,0
85547,85547,BLANCO & CAS-HILLS,,29.51261,-98.50685,,,,,,0
85917,85917,BLANCO & ATWATER,Blanco Rd & Atwater Dr,29.51026,-98.506841,,,,,,0
95437,95437,BLANCO & RIVIERA,Blanco Rd & Herweck Dr,29.50814,-98.50685,,,,,,0
95737,95737,BLANCO OPP ENTRANCE TO GROTTO,Blanco Rd & Parade Dr,29.506209,-98.506859,,,,,,0
15237,15237,BLANCO OPPOSITE OBLATE,Blanco Rd & Oblate Dr,29.504324,-98.506868,,,,,,0
15517,15517,BLANCO & JACKSON-KELLER,Blanco Rd & Jackson-keller Rd,29.502898,-98.507528,,,,,,0
25527,25527,BLANCO BETWEEN GILBERT & BURWOOD,,29.49591,-98.507833,,,,,,0
35417,35417,BLANCO OPPOSITE BURWOOD,,29.494358,-98.507843,,,,,,0
35917,35917,BLANCO & HILLWOOD,,29.491282,-98.507873,,,,,,0
55417,55417,BLANCO & LOVERA,,29.48428,-98.50786,,,,,,0
55927,55927,BLANCO OPPOSITE MANDALAY,,29.481592,-98.5079,,,,,,0
65327,65327,BLANCO & WILDWOOD,,29.479769,-98.50792,,,,,,0
75527,75527,BLANCO & FRESNO,,29.474184,-98.507918,,,,,,0
85127,85127,BLANCO & SANTA MONICA,,29.471703,-98.507907,,,,,,0
95427,95427,BLANCO & ROSEWOOD,,29.464539,-98.507894,,,,,,0
95827,95827,BLANCO & W. LYNWOOD,,29.463186,-98.507893,,,,,,0
15717,15717,BLANCO & W. SUMMIT,,29.458683,-98.507912,,,,,,0
25217,25217,BLANCO & W. MULBERRY,,29.456797,-98.507922,,,,,,0
25517,25517,BLANCO & W. MAGNOLIA,,29.454857,-98.507952,,,,,,0
25917,25917,BLANCO & WOODLAWN,,29.452918,-98.507972,,,,,,0
35317,35317,BLANCO & RUSSELL,,29.451095,-98.50795,,,,,,0
35717,35717,BLANCO & ASHBY,,29.449137,-98.50797,,,,,,0
67517,67517,N. FLORES & CADWALLADER,,29.435622,-98.500741,,,,,,0
78117,78117,N. FLORES & QUINCY,,29.433277,-98.497433,,,,,,0
11367,11367,S ALAMO OPPOSITE REFUGIO & LAVACA,,29.417369,-98.488404,,,,,,0
12813,12813,BARRERA & INDIANOLA,,29.415114,-98.486415,,,,,,0
22143,22143,BARRERA & CAMARGO,,29.414022,-98.485189,,,,,,0
22477,22477,LABOR & CALLAGHAN,,29.412271,-98.483809,,,,,,0
22787,22787,LABOR & DEVINE,,29.410485,-98.483881,,,,,,0
32267,32267,LABOR & FLORIDA,,29.408418,-98.484529,,,,,,0
32463,32463,CAROLINA & S. PRESA,Carolina St & Staffel St,29.407343,-98.484647,,,,,,0
65873,65873,STEVES & HACKBERRY,Steves Ave & S Olive St,29.390975,-98.473293,,,,,,0
66973,66973,STEVES & PINE,Steves Ave & S Pine St,29.390966,-98.469606,,,,,,0
67993,67993,STEVES & PALMETTO,,29.390947,-98.465464,,,,,,0
69913,69913,STEVES & S. NEW BRAUNFELS,,29.390938,-98.461272,,,,,,0
69973,69973,STEVES & NOPAL,,29.39091,-98.459027,,,,,,0
61943,61943,STEVES & GEVERS,,29.390883,-98.456802,,,,,,0
62813,62813,STEVES OPPOSITE MITTMAN,,29.390864,-98.454495,,,,,,0
62863,62863,STEVES & WALTERS,,29.390647,-98.452405,,,,,,0
63923,63923,STEVES & ADELE,Steves Ave & Adele St,29.39065,-98.450419,,,,,,0
74123,74123,VILLAREAL & HALLIE,Villareal St & Hallie Ave,29.390262,-98.446691,,,,,,0
74173,74173,VILLAREAL & ANITA,,29.390257,-98.445061,,,,,,0
85217,85217,SKYRIDGE & GLOVER,Skyridge Ave & Glover St,29.38454,-98.443695,,,,,,0
85727,85727,DOLLARHIDE & KASHMUIR,,29.382243,-98.443242,,,,,,0
95127,95127,DOLLARHIDE & CRAVENS,,29.380456,-98.443232,,,,,,0
95347,95347,DOLLARHIDE & GLAMIS,,29.379563,-98.442676,,,,,,0
95647,95647,DOLLARHIDE & E. SOUTHCROSS,,29.377731,-98.44242,,,,,,0
95967,95967,DOLLARHIDE & PRESTWICK,,29.375862,-98.44172,,,,,,0
15487,15487,DOLLARHIDE & METZ,,29.374075,-98.440887,,,,,,0
15797,15797,DOLLARHIDE & COLGLAZIER,,29.372432,-98.440455,,,,,,0
25197,25197,DOLLARHIDE & POOL,,29.370682,-98.440651,,,,,,0
25497,25497,DOLLARHIDE & HOWERTON,,29.368994,-98.440446,,,,,,0
36187,36187,DOLLARHIDE OPPOSITE BOB BILLA,,29.36597,-98.437184,,,,,,0
36497,36497,DOLLARHIDE & PALFREY,,29.36439,-98.436834,,,,,,0
38353,38353,PALFREY & BELFORD,,29.364596,-98.431491,,,,,,0
38266,38266,BELFORD & GAYLE,Belford Dr & Gayle Ave,29.365405,-98.43088,,,,,,0
28876,28876,BELFORD & GALWAY,Belford Dr & Galway Dr,29.367056,-98.430385,,,,,,0
29853,29853,GALWAY & PICKWELL,,29.367139,-98.427515,,,,,,0
29977,29977,PICKWELL & BANBRIDGE,,29.366372,-98.427227,,,,,,0
39377,39377,PICKWELL & PALFREY,,29.364684,-98.426868,,,,,,0
39777,39777,PICKWELL & NASH,,29.363014,-98.426879,,,,,,0
49177,49177,PICKWELL & KATE SCHENCK,,29.361318,-98.426839,,,,,,0
49477,49477,PICKWELL & UTOPIA,,29.359612,-98.42683,,,,,,0
42413,42413,UTOPIA & FAIRLAWN,,29.359574,-98.422228,,,,,,0
41897,41897,FAIRLAWN & PORTSMOUTH,,29.357696,-98.422579,,,,,,0
51287,51287,FAIRLAWN & DEVON,,29.356108,-98.422992,,,,,,0
51649,51649,S.E.MILITARY DR. & PICKWELL,,29.353726,-98.424661,,,,,,0
32263,32263,ENRIQUE BARRERA PKWY OPPOSITE RODRIGUEZ,,29.408583,-98.614326,,,,,,0
24583,24583,ENRIQUE BARRERA PKWY OPPOSITE GENA,,29.412446,-98.606462,,,,,,0
25333,25333,ENRIQUE BARRERA PKWY/E.ENTR. LEVIS-STRAUS,,29.413441,-98.604084,,,,,,0
25183,25183,ENRIQUE BARRERA PKWY OPPOSITE JEROME,,29.414256,-98.602128,,,,,,0
16963,16963,ENRIQUE BARRERA PKWY & CALLAGHAN,,29.415124,-98.600048,,,,,,0
17573,17573,ENRIQUE BARRERA PKWY & HERBERT,,29.416807,-98.596033,,,,,,0
91733,91733,ENRIQUE BARRERA PKWY & S.W. 42ND,Old Us-90 W & Eldridge Ave,29.420963,-98.586145,,,,,,0
91593,91593,ENRIQUE BARRERA PKWY & S.W. 41ST.,Old Us-90 W & Sw 41st St,29.421814,-98.584178,,,,,,0
92363,92363,ENRIQUE BARRERA PKWY & S.W. 4OTH,,29.422588,-98.5824,,,,,,0
93133,93133,ENRIQUE BARRERA PKWY & S.W. 39TH,,29.423619,-98.579918,,,,,,0
83883,83883,ENRIQUE BARRERA PKWY & S.W. 38TH,Old Us-90 W & Sw 38th St,29.424663,-98.577403,,,,,,0
84653,84653,ENRIQUE BARRERA PKWY & S.W. 37TH,Old Us-90 W & Sw 37th St,29.425641,-98.575055,,,,,,0
85433,85433,ENRIQUE BARRERA PKWY & S.W. 36TH,,29.426693,-98.572802,,,,,,0
85343,85343,ENRIQUE BARRERA PKWY IN FRONT OF 538,,29.427598,-98.570825,,,,,,0
76953,76953,ENRIQUE BARRERA PKWY & S.W. 34TH,,29.429252,-98.56722,,,,,,0
77813,77813,ENRIQUE BARRERA PKWY & MONTEREY,Old Us-90 W & Sw 34th St,29.429891,-98.565787,,,,,,0
77683,77683,ENRIQUE BARRERA PKWY & SAN JOAQUIN,Old Us-90 W & S San Joaquin Ave,29.430949,-98.563243,,,,,,0
78583,78583,W. COMMERCE & SAN FELIPE (OFFSET),,29.431261,-98.559432,,,,,,0
86883,86883,BUENA VISTA & PECOS,,29.424703,-98.501748,,,,,,0
87993,87993,DOLOROSA & SANTA ROSA,,29.424271,-98.498358,,,,,,0
67946,67946,SAN PEDRO BET. HORACE & AUDUBON,San Pedro Ave & Asbury Ln,29.476214,-98.499203,,,,,,0
17256,17256,SAN PEDRO & OBLATE,San Pedro Ave & Unnamed,29.5042,-98.499237,,,,,,0
57466,57466,SAN PEDRO / TOM BENSON SERVICE ENT.,,29.52637,-98.498509,,,,,,0
48336,48336,SAN PEDRO & SAHARA,San Pedro Ave & Sahara Dr,29.532566,-98.495907,,,,,,0
38866,38866,SAN PEDRO & HERITAGE,San Pedro Ave & Heritage Blvd,29.535047,-98.49436,,,,,,0
63826,63826,SAN PEDRO BETWEEN HEIMER & BITTERS,N Us-281 & San Pedro Ave,29.562916,-98.482317,,,,,,0
34366,34366,SAN PEDRO & BROOK HOLLOW,,29.579577,-98.476733,,,,,,0
66976,66976,HWY 281 N ACCESS RD FRONT OF H.E.B.,,29.606286,-98.468865,,,,,,0
34157,34157,SAN PEDRO IN FRONT OF 15331,,29.582049,-98.476702,,,,,,0
34647,34647,SAN PEDRO BETWEEN BROOK HOLLOW & WINDING WAY,,29.579614,-98.477517,,,,,,0
72937,72937,SAN PEDRO & INTERPARK,,29.557838,-98.485081,,,,,,0
91547,91547,SAN PEDRO IN FRONT OF 12023,,29.551017,-98.488145,,,,,,0
38657,38657,SAN PEDRO BETWEEN SONATA/PATRICIA,,29.535518,-98.495148,,,,,,0
27947,27947,SAN PEDRO & WOODLAWN,,29.453046,-98.499345,,,,,,0
68767,68767,SAN PEDRO & QUINCY,,29.434631,-98.495104,,,,,,0
86639,86639,W. COMMERCE & FRIO,,29.426092,-98.5035,,,,,,0
79579,79579,W. COMMERCE IN FRONT OF 4711,,29.43093,-98.555589,,,,,,0
78559,78559,ENRIQUE BARRERA PKWY & SAN HORACIO,,29.431323,-98.561267,,,,,,0
77689,77689,ENRIQUE BARRERA PKWY & SAN JOAQUIN,,29.43106,-98.562894,,,,,,0
77819,77819,ENRIQUE BARRERA PKWY & MONTEREY,Old Us-90 W & Monterey St,29.429981,-98.565695,,,,,,0
76959,76959,ENRIQUE BARRERA PKWY & S.W. 34TH,,29.429134,-98.567539,,,,,,0
85439,85439,ENRIQUE BARRERA PKWY & S.W. 36TH,,29.427082,-98.572019,,,,,,0
84659,84659,ENRIQUE BARRERA PKWY & S.W. 37TH,,29.425961,-98.574481,,,,,,0
83889,83889,ENRIQUE BARRERA PKWY & S.W. 38TH,,29.424885,-98.577034,,,,,,0
93139,93139,ENRIQUE BARRERA PKWY & S.W. 39TH,,29.423736,-98.579733,,,,,,0
92369,92369,ENRIQUE BARRERA PKWY & S.W. 4OTH,,29.422958,-98.581596,,,,,,0
91599,91599,ENRIQUE BARRERA PKWY & S.W. 41ST.,,29.421973,-98.583944,,,,,,0
91679,91679,ENRIQUE BARRERA PKWY & ELDRIDGE,,29.421358,-98.585417,,,,,,0
17579,17579,ENRIQUE BARRERA PKWY OPPOSITE HERBERT,,29.416988,-98.595703,,,,,,0
16969,16969,ENRIQUE BARRERA PKWY & CALLAGHAN,,29.415495,-98.599286,,,,,,0
25189,25189,ENRIQUE BARRERA PKWY & JEROME,,29.414111,-98.60257,,,,,,0
24589,24589,ENRIQUE BARRERA PKWY & GENA,,29.412518,-98.606359,,,,,,0
32269,32269,ENRIQUE BARRERA PKWY & RODRIGUEZ,,29.408465,-98.614573,,,,,,0
99257,99257,ESTATE & FROSTWOOD,,29.422799,-98.394513,,,,,,0
99757,99757,GLENBROOK & WAYCROSS,,29.420336,-98.394711,,,,,,0
99639,99639,WAYCROSS & LYNHAVEN,,29.420273,-98.395844,,,,,,0
99336,99336,LYNHAVEN & MELVIN,,29.42178,-98.396008,,,,,,0
87969,87969,E. HOUSTON OPPOSITE WHISPERING CREE,,29.424041,-98.40227,,,,,,0
86969,86969,E. HOUSTON & W.W. WHITE,,29.424025,-98.404658,,,,,,0
86949,86949,E. HOUSTON OPPOSITE KENMAR,,29.424161,-98.406721,,,,,,0
85859,85859,E. HOUSTON & HIGHWAY,,29.424605,-98.409801,,,,,,0
84769,84769,E. HOUSTON & ROARK,,29.424868,-98.412572,,,,,,0
84719,84719,E. HOUSTON & UPLAND,,29.424842,-98.414767,,,,,,0
83769,83769,E. HOUSTON IN FRONT OF 4139,,29.424835,-98.416745,,,,,,0
83719,83719,E. HOUSTON OPPOSITE NOBLEWOOD,,29.424809,-98.418785,,,,,,0
81859,81859,E. HOUSTON BET. IH-10 & E. COMMER,,29.424784,-98.423473,,,,,,0
89969,89969,E. COMMERCE AT AMERICAN RED CROSS,,29.423991,-98.426884,,,,,,0
96899,96899,E. COMMERCE OPPOSITE GAY,,29.420305,-98.43654,,,,,,0
96929,96929,E. COMMERCE OPPOSITE SPRIGGSDALE,,29.419774,-98.44061,,,,,,0
95959,95959,E. COMMERCE & KRAFT,,29.419693,-98.442073,,,,,,0
93999,93999,E. COMMERCE BETWEEN GARCIA & MEL WAITERS WAY,,29.419577,-98.446215,,,,,,0
93939,93939,E. COMMERCE & GRIMES,,29.419478,-98.449738,,,,,,0
92969,92969,E. COMMERCE & WALTERS,,29.41947,-98.45218,,,,,,0
92919,92919,E. COMMERCE & MITTMAN,,29.419461,-98.454467,,,,,,0
91949,91949,E. COMMERCE & GEVERS,,29.419462,-98.456435,,,,,,0
99979,99979,E. COMMERCE & POLARIS,,29.419453,-98.458939,,,,,,0
99929,99929,E. COMMERCE & N. NEW BRAUNFELS,,29.419445,-98.461174,,,,,,0
97999,97999,E. COMMERCE & PALMETTO,,29.419445,-98.465295,,,,,,0
97959,97959,E. COMMERCE OPPOSITE PIEDMONT,,29.419436,-98.467047,,,,,,0
97929,97929,E. COMMERCE BTWN MONUMENTAL & PINE,,29.4197,-98.4693,,,,,,0
96829,96829,E. COMMERCE & OLIVE,,29.420176,-98.471704,,,,,,0
94699,94699,E. COMMERCE & CHERRY,,29.421088,-98.475876,,,,,,0
94429,94429,E. COMMERCE OPPOSITE SYCAMORE,,29.421855,-98.479194,,,,,,0
71726,71726,NAVARRO & AUDITORIUM CIRCLE,,29.429948,-98.489704,,,,,,0
68116,68116,SAN PEDRO BET. MARSHALL & MAVERICK,,29.438411,-98.497805,,,,,,0
57566,57566,SAN PEDRO & CYPRESS,San Pedro Ave & W Cypress St,29.440537,-98.498847,,,,,,0
37746,37746,SAN PEDRO & ASHBY,,29.448823,-98.499271,,,,,,0
37346,37346,SAN PEDRO & RUSSELL,,29.450986,-98.499243,,,,,,0
27946,27946,SAN PEDRO & WOODLAWN,,29.452811,-98.499283,,,,,,0
27556,27556,SAN PEDRO & MAGNOLIA,,29.45473,-98.499214,,,,,,0
27246,27246,SAN PEDRO BETWEEN HUISACHE & MULB,,29.456081,-98.499241,,,,,,0
17746,17746,SAN PEDRO & SUMMIT,,29.45858,-98.499251,,,,,,0
17346,17346,SAN PEDRO & GRAMERCY,,29.460793,-98.499265,,,,,,0
97846,97846,SAN PEDRO & LYNWOOD,,29.462986,-98.499259,,,,,,0
97256,97256,SAN PEDRO & LULLWOOD,,29.465586,-98.499206,,,,,,0
87246,87246,SAN PEDRO & OLMOS,,29.47083,-98.499279,,,,,,0
77646,77646,SAN PEDRO OPPOSITE MCILVAINE,,29.473308,-98.499223,,,,,,0
77356,77356,SAN PEDRO & REX,,29.475031,-98.499159,,,,,,0
67746,67746,SAN PEDRO & CLOWER,,29.477513,-98.499183,,,,,,0
67456,67456,SAN PEDRO & WILDWOOD,,29.47938,-98.499194,,,,,,0
57946,57946,SAN PEDRO & MANDALAY,,29.481167,-98.499195,,,,,,0
57656,57656,SAN PEDRO & HERMINE,,29.483116,-98.499145,,,,,,0
57246,57246,SAN PEDRO & EL MONTE,,29.48511,-98.499145,,,,,,0
37546,37546,SAN PEDRO & RECOLETA,,29.49295,-98.499149,,,,,,0
27956,27956,SAN PEDRO OPPOSITE NOVA MAE,,29.495025,-98.499129,,,,,,0
27656,27656,SAN PEDRO & JACKSON-KELLER,,29.497091,-98.499153,,,,,,0
27146,27146,SAN PEDRO & JEANETTE (PIZZA HUT-6,,29.499575,-98.49915,,,,,,0
17756,17756,SAN PEDRO & LINDA,,29.501867,-98.499194,,,,,,0
17156,17156,SAN PEDRO IN FRONT OF N. TOWNE PLAZ,,29.506312,-98.499238,,,,,,0
97456,97456,SAN PEDRO IN FRONT CITY PUBLIC SERVICE,,29.508729,-98.499249,,,,,,0
87556,87556,SAN PEDRO IN FRONT OF 7080,,29.510949,-98.49924,,,,,,0
87356,87356,SAN PEDRO & RAMPART,,29.513439,-98.499241,,,,,,0
77947,77947,SAN PEDRO IN FRONT OF 7219,,29.513794,-98.499352,,,,,,0
87447,87447,SAN PEDRO & THAMES,,29.51226,-98.4993,,,,,,0
97247,97247,SAN PEDRO IN FRONT OF 7045,,29.509599,-98.499319,,,,,,0
97447,97447,SAN PEDRO & MAPLEWOOD (CAR WASH),,29.507677,-98.49934,,,,,,0
97747,97747,SAN PEDRO IN FRONT OF 6931,,29.505954,-98.499329,,,,,,0
17227,17227,SAN PEDRO IN FRONT OF 6839 (HEB),San Pedro Ave & Unnamed,29.503316,-98.499277,,,,,,0
17747,17747,SAN PEDRO & VEDA MAE,,29.501163,-98.499276,,,,,,0
27847,27847,SAN PEDRO & AVE MARIA,,29.496309,-98.499316,,,,,,0
37347,37347,SAN PEDRO & AVE DEL REY,,29.494388,-98.499325,,,,,,0
37647,37647,SAN PEDRO IN FRONT OF 6127,,29.491906,-98.499325,,,,,,0
47747,47747,SAN PEDRO & LA MANDA,,29.487368,-98.499344,,,,,,0
57247,57247,SAN PEDRO & EL MONTE,,29.485492,-98.499313,,,,,,0
57657,57657,SAN PEDRO & HERMINE,,29.483308,-98.499333,,,,,,0
57947,57947,SAN PEDRO & MANDALAY,,29.481395,-98.499332,,,,,,0
67457,67457,SAN PEDRO & WILDWOOD,,29.479582,-98.499321,,,,,,0
67747,67747,SAN PEDRO & CLOWER,,29.478111,-98.499321,,,,,,0
67947,67947,SAN PEDRO & AUDUBON,,29.476668,-98.4993,,,,,,0
77647,77647,SAN PEDRO & MCILVAINE,,29.473411,-98.499351,,,,,,0
77957,77957,SAN PEDRO & SANTA MONICA,,29.471624,-98.49936,,,,,,0
87457,87457,SAN PEDRO & WESTWOOD,,29.46991,-98.49937,,,,,,0
97437,97437,SAN PEDRO & ROSEWOOD,,29.464947,-98.499348,,,,,,0
97847,97847,SAN PEDRO BETWEEN HOLLYWOOD & LYNWOOD,,29.4636,-98.4994,,,,,,0
17347,17347,SAN PEDRO & GRAMERCY,,29.460851,-98.499347,,,,,,0
17737,17737,SAN PEDRO & SUMMIT,,29.458785,-98.499388,,,,,,0
27157,27157,SAN PEDRO & MULBERRY,,29.456899,-98.499346,,,,,,0
27747,27747,SAN PEDRO & MISTLETOE,,29.453984,-98.499366,,,,,,0
37337,37337,SAN PEDRO & RUSSELL,,29.451151,-98.499375,,,,,,0
37747,37747,SAN PEDRO & ASHBY,,29.449013,-98.499354,,,,,,0
47147,47147,SAN PEDRO OPPOSITE DEWEY,,29.4471,-98.499405,,,,,,0
57887,57887,SAN PEDRO & WARREN,,29.438862,-98.498248,,,,,,0
68547,68547,SAN PEDRO & ELMIRA,,29.435794,-98.49597,,,,,,0
79487,79487,NAVARRO & N. ST. MARY'S,,29.431437,-98.49092,,,,,,0
92453,92453,MARKET/ FRONT OF CONVENTION CENTER,E MARKET ST & ST,29.422531,-98.485808,,,,,,0
93296,93296,CHESTNUT AT ELLIS ALLEY PARK & RIDE,,29.423064,-98.479863,,,,,,0
96823,96823,E. COMMERCE & OLIVE,,29.420194,-98.471848,,,,,,0
96983,96983,E. COMMERCE IN FRONT OF 1730,,29.419608,-98.469149,,,,,,0
97953,97953,E. COMMERCE & PIEDMONT,,29.419418,-98.46717,,,,,,0
97993,97993,E. COMMERCE & PALMETTO,,29.419409,-98.465491,,,,,,0
99923,99923,E. COMMERCE & S. NEW BRAUNFELS,,29.419417,-98.461525,,,,,,0
99973,99973,E. COMMERCE & POLARIS,,29.419435,-98.459103,,,,,,0
91943,91943,E. COMMERCE & GEVERS,,29.419444,-98.457146,,,,,,0
92913,92913,E. COMMERCE & MITTMAN,,29.419443,-98.454684,,,,,,0
92963,92963,E. COMMERCE & WALTERS,,29.419452,-98.452489,,,,,,0
93933,93933,E. COMMERCE & GRIMES,,29.41946,-98.450078,,,,,,0
93993,93993,E. COMMERCE & MEL WAITERS WAY,,29.419469,-98.447255,,,,,,0
94953,94953,E. COMMERCE & ROSARY,,29.419559,-98.445555,,,,,,0
95953,95953,E. COMMERCE OPPOSITE KRAFT,,29.419666,-98.442341,,,,,,0
96923,96923,E. COMMERCE & SPRIGGSDALE,,29.419738,-98.440507,,,,,,0
96843,96843,E. COMMERCE OPPOSITE COCA-COLA PL.,,29.419845,-98.438673,,,,,,0
96893,96893,E. COMMERCE & GAY,,29.420106,-98.437024,,,,,,0
98443,98443,E. COMMERCE & DAFOSTE,,29.421783,-98.431996,,,,,,0
89973,89973,E. COMMERCE OPP. AMERICAN RED CROSS,,29.423793,-98.427307,,,,,,0
81853,81853,E. HOUSTON BET. E. COMMERCE & IH-,,29.424766,-98.423432,,,,,,0
83713,83713,E. HOUSTON & NOBLEWOOD,,29.424791,-98.418775,,,,,,0
83763,83763,E. HOUSTON OPPOSITE 4129,,29.424808,-98.416859,,,,,,0
84713,84713,E. HOUSTON & UPLAND,,29.424816,-98.4152,,,,,,0
84763,84763,E. HOUSTON & ROARK,,29.42485,-98.412799,,,,,,0
85833,85833,E. HOUSTON & EASTWOOD,,29.424659,-98.410347,,,,,,0
86893,86893,E. HOUSTON AT PEACE LUTHERAN CHURCH,,29.424024,-98.403702,,,,,,0
87963,87963,E. HOUSTON & WHISPERING CREEK,,29.424014,-98.402249,,,,,,0
88813,88813,E. HOUSTON IN FRONT OF JEFF DAVIS -,,29.424012,-98.400693,,,,,,0
88993,88993,E. HOUSTON & FLORA MAE,,29.42401,-98.397232,,,,,,0
55369,55369,RIGSBY IN FRONT OF RIGSBY APTS.,Rigsby Ave & S Ww White Rd,29.398381,-98.409887,,,,,,0
52179,52179,RIGSBY IN FRONT OF 2419,Rigsby Ave & Shrader Rd,29.399432,-98.41962,,,,,,0
52139,52139,RIGSBY IN FRONT OF 2315,Rigsby Ave & Grobe Rd,29.399406,-98.421701,,,,,,0
51159,51159,RIGSBY IN FRONT OF 2227,,29.399301,-98.423953,,,,,,0
59439,59439,RIGSBY OPPOSITE AMITY,Rigsby Ave & Ancel Rd,29.39819,-98.428911,,,,,,0
58369,58369,RIGSBY BETWEEN PIONEER & DAY,,29.398139,-98.430484,,,,,,0
57419,57419,RIGSBY & ROLAND (AMANDA),,29.398106,-98.436458,,,,,,0
56439,56439,RIGSBY OPPOSITE BEETHOVEN,Rigsby Ave & Elgin St,29.398184,-98.439551,,,,,,0
55439,55439,RIGSBY OPPOSITE ELGIN,Rigsby Ave & Beethoven Ave,29.398185,-98.443414,,,,,,0
54359,54359,RIGSBY IN FRONT OF 1351,Rigsby Ave & Anita Ave,29.398194,-98.445731,,,,,,0
53379,53379,RIGSBY & CLARK,Rigsby Ave & Clark Ave,29.39851,-98.448306,,,,,,0
53329,53329,RIGSBY & ADELE,,29.398489,-98.450301,,,,,,0
52319,52319,RIGSBY & MITTMAN,S Mittman St & Hammond Ave,29.398484,-98.454445,,,,,,0
51349,51349,RIGSBY & GEVERS,Rigsby Ave & Lux Ln,29.398484,-98.456763,,,,,,0
59379,59379,RIGSBY & NOPAL,Rigsby Ave & Nopal St,29.398502,-98.458864,,,,,,0
59329,59329,RIGSBY & S. NEW BRAUNFELS,Rigsby Ave & Matlock St,29.398484,-98.461099,,,,,,0
58349,58349,RIGSBY & ST. ANTHONY,,29.398518,-98.46331,,,,,,0
57489,57489,RIGSBY & PALMETTO,Rigsby Ave & S Palmetto Ave,29.398484,-98.465157,,,,,,0
57339,57339,RIGSBY & PIEDMONT,Rigsby Ave & Piedmont St,29.398484,-98.467784,,,,,,0
56379,56379,RIGSBY & PINE,S Pine St & Hammond Ave,29.398493,-98.469524,,,,,,0
56339,56339,RIGSBY & OLIVE,Rigsby Ave & S Pine St,29.398493,-98.47143,,,,,,0
34899,34899,DENVER & CHERRY,Denver Blvd & S Mesquite St,29.404944,-98.476066,,,,,,0
33639,33639,FLORIDA & BOERNE,Florida St & Unnamed,29.407235,-98.481495,,,,,,0
21356,21356,S. ST. MARY'S & PEREIDA,,29.412839,-98.488527,,,,,,0
11216,11216,S. ST. MARY'S & CESAR CHAVEZ BLVD,,29.418127,-98.49032,,,,,,0
99986,99986,S ST MARYS BET. CESAR CHA/ARCINIEGA,,29.419102,-98.490681,,,,,,0
61866,61866,MCCULLOUGH & AUGUSTA,,29.434388,-98.487912,,,,,,0
61436,61436,MCCULLOUGH & CAMDEN,,29.436165,-98.489283,,,,,,0
59866,59866,MCCULLOUGH & EUCLID,,29.438836,-98.491396,,,,,,0
59156,59156,MCCULLOUGH & EVERGREEN,,29.442698,-98.491798,,,,,,0
49256,49256,MCCULLOUGH & DEWEY,,29.446948,-98.491799,,,,,,0
39756,39756,MCCULLOUGH & ASHBY,,29.448058,-98.491851,,,,,,0
39356,39356,MCCULLOUGH & RUSSELL,,29.451144,-98.4918,,,,,,0
29956,29956,MCCULLOUGH & WOODLAWN,,29.452714,-98.491769,,,,,,0
29656,29656,MCCULLOUGH & MAGNOLIA,,29.454392,-98.49178,,,,,,0
29356,29356,MCCULLOUGH & HUISACHE,,29.455808,-98.49178,,,,,,0
29156,29156,MCCULLOUGH & MULBERRY,,29.456765,-98.491791,,,,,,0
19756,19756,MCCULLOUGH & SUMMIT,,29.458588,-98.49177,,,,,,0
19356,19356,MCCULLOUGH & E. KINGS HWY.,,29.460564,-98.491771,,,,,,0
99956,99956,MCCULLOUGH & BUSHNELL,Mccullough Ave & E Elsmere Pl,29.462411,-98.491755,,,,,,0
99656,99656,MCCULLOUGH & SCHREINER,Mccullough Ave & E Hollywood Ave,29.46418,-98.491776,,,,,,0
49656,49656,MCCULLOUGH & BASSE,,29.487469,-98.491704,,,,,,0
39766,39766,MCCULLOUGH OPPOSITE JACKSON-KELLER,,29.49235,-98.491653,,,,,,0
29856,29856,MCCULLOUGH & BASIN,,29.496464,-98.491654,,,,,,0
29456,29456,MCCULLOUGH & HARRIETT,,29.498043,-98.491685,,,,,,0
19956,19956,MCCULLOUGH & LINDA,,29.500118,-98.491665,,,,,,0
19456,19456,MCCULLOUGH BET. SHANNON LEE & BARBA,,29.502734,-98.491686,,,,,,0
99856,99856,MCCULLOUGH & SHADYWOOD,,29.506081,-98.491687,,,,,,0
99356,99356,MCCULLOUGH & SPRINGWOOD,,29.5084,-98.491687,,,,,,0
89946,89946,MCCULLOUGH & PINEWOOD,,29.510096,-98.491698,,,,,,0
89656,89656,MCCULLOUGH BET. SPRUCEWOOD & REXFOR,,29.51292,-98.491688,,,,,,0
79846,79846,McCullough & Senova,,29.514833,-98.491709,,,,,,0
76693,76693,RECTOR OPPOSITE SEARS-AUTO ENTR. DR,,29.516888,-98.500435,,,,,,0
89247,89247,MCCULLOUGH & RAMPART,,29.514075,-98.491729,,,,,,0
89657,89657,MCCULLOUGH & SPRUCEWOOD,,29.511937,-98.491739,,,,,,0
89947,89947,MCCULLOUGH & PINEWOOD,,29.509988,-98.491739,,,,,,0
99447,99447,MCCULLOUGH & MAPLEWOOD,,29.50812,-98.491738,,,,,,0
99857,99857,MCCULLOUGH & SHADYWOOD,,29.506199,-98.491738,,,,,,0
19457,19457,MCCULLOUGH BET. BARBARA & SHANNON L,,29.50268,-98.491737,,,,,,0
19957,19957,MCCULLOUGH & LINDA,,29.500334,-98.491737,,,,,,0
29457,29457,MCCULLOUGH & HARRIETT,,29.498332,-98.491726,,,,,,0
29757,29757,MCCULLOUGH & RILLA VISTA,,29.496942,-98.491736,,,,,,0
39757,39757,MCCULLOUGH & JACKSON-KELLER,,29.49263,-98.491725,,,,,,0
49657,49657,MCCULLOUGH & BASSE,,29.488173,-98.491745,,,,,,0
59157,59157,MCCULLOUGH & CONTOUR DR. (EL MONT,,29.485439,-98.491734,,,,,,0
59657,59657,MCCULLOUGH & HERMINE,,29.483282,-98.491734,,,,,,0
59957,59957,MCCULLOUGH & MANDALAY,,29.481334,-98.491744,,,,,,0
69457,69457,MCCULLOUGH OPPOSITE WILDWOOD,,29.479502,-98.491712,,,,,,0
69757,69757,MCCULLOUGH & JOY,,29.477977,-98.491733,,,,,,0
79157,79157,MCCULLOUGH & HORACE,,29.475911,-98.491722,,,,,,0
79657,79657,MCCULLOUGH & ODELL,Mccullough Ave & Dora St,29.47378,-98.491707,,,,,,0
79957,79957,MCCULLOUGH & EARL,Mccullough Ave & Earl St,29.471623,-98.491706,,,,,,0
89557,89557,MCCULLOUGH & MELROSE,,29.46946,-98.491741,,,,,,0
89957,89957,MCCULLOUGH & RIDGEWOOD,,29.46734,-98.491803,,,,,,0
99657,99657,MCCULLOUGH & HOLLYWOOD,Mccullough Ave & E Hollywood Ave,29.464225,-98.491838,,,,,,0
99957,99957,MCCULLOUGH & ELSMERE,Mccullough Ave & Bushnell Ave,29.462258,-98.491816,,,,,,0
19447,19447,MCCULLOUGH & E. KINGS HWY.,,29.460194,-98.491832,,,,,,0
19757,19757,MCCULLOUGH & SUMMIT,,29.458795,-98.491822,,,,,,0
29157,29157,MCCULLOUGH & MULBERRY,,29.456873,-98.491822,,,,,,0
29357,29357,MCCULLOUGH & HUISACHE,,29.45589,-98.491821,,,,,,0
29957,29957,MCCULLOUGH & WOODLAWN,,29.453038,-98.491831,,,,,,0
39357,39357,MCCULLOUGH & RUSSELL,,29.451261,-98.491862,,,,,,0
39747,39747,MCCULLOUGH & ASHBY,,29.448653,-98.491892,,,,,,0
49257,49257,MCCULLOUGH & DEWEY,,29.447146,-98.491892,,,,,,0
49647,49647,MCCULLOUGH & MYRTLE,,29.444981,-98.49186,,,,,,0
49957,49957,MCCULLOUGH & EVERGREEN,,29.442851,-98.49186,,,,,,0
59867,59867,MCCULLOUGH & EUCLID,,29.438962,-98.49156,,,,,,0
61437,61437,MCCULLOUGH & CAMDEN,,29.436265,-98.489448,,,,,,0
61867,61867,MCCULLOUGH & AUGUSTA,,29.434514,-98.488066,,,,,,0
61987,61987,MCCULLOUGH & N. ST. MARY'S,,29.433684,-98.487427,,,,,,0
71237,71237,N. ST. MARY'S & LEXINGTON,,29.432448,-98.489251,,,,,,0
99357,99357,ST. MARY'S BETWEEN VILLITA & NUEVA,,29.422161,-98.491403,,,,,,0
21877,21877,S. ST. MARY'S & FIR,,29.410277,-98.487754,,,,,,0
33633,33633,CAROLINA OPPOSITE BOERNE,Carolina St & Boerne St,29.40627,-98.481886,,,,,,0
34813,34813,CAROLINA & HOEFGEN,,29.405449,-98.479214,,,,,,0
34893,34893,CAROLINA & CHERRY,,29.405449,-98.476257,,,,,,0
45677,45677,S. HACKBERRY & HIGH,,29.401587,-98.473559,,,,,,0
45977,45977,S. HACKBERRY & WHITTIER,,29.399999,-98.473528,,,,,,0
56333,56333,RIGSBY & OLIVE,,29.398429,-98.47156,,,,,,0
56373,56373,RIGSBY & PINE,Rigsby Ave & S Olive St,29.398429,-98.46971,,,,,,0
57333,57333,RIGSBY & PIEDMONT,Rigsby Ave & S Pine St,29.39843,-98.467918,,,,,,0
57483,57483,RIGSBY & PALMETTO,Rigsby Ave & S Palmetto Ave,29.39843,-98.465579,,,,,,0
58343,58343,RIGSBY & ST. ANTHONY,Rigsby Ave & St Anthony Ave,29.398439,-98.463427,,,,,,0
59373,59373,RIGSBY & NOPAL,Rigsby Ave & Nopal St,29.398448,-98.459111,,,,,,0
51343,51343,RIGSBY & GEVERS,Rigsby Ave & Lux Ln,29.39843,-98.456824,,,,,,0
52313,52313,RIGSBY & MITTMAN,Rigsby Ave & S Mittman St,29.39843,-98.454569,,,,,,0
53323,53323,RIGSBY & ADELE,,29.398417,-98.450404,,,,,,0
53373,53373,RIGSBY & CLARK,,29.398425,-98.448499,,,,,,0
54453,54453,RIGSBY IN FRONT OF 1438,Rigsby Ave & Elgin St,29.398032,-98.44499,,,,,,0
55423,55423,RIGSBY & ELGIN,,29.397991,-98.443421,,,,,,0
56433,56433,RIGSBY & BEETHOVEN,Rigsby Ave & Elgin St,29.398013,-98.439644,,,,,,0
58413,58413,RIGSBY & PECAN VALLEY,Rigsby Ave & Pecan Valley Dr,29.398047,-98.432877,,,,,,0
58333,58333,RIGSBY IN FRONT OF STEWART ELEM. SC,Rigsby Ave & Pecan Valley Dr,29.398047,-98.43092,,,,,,0
59433,59433,RIGSBY & AMITY,Rigsby Ave & Pecan Valley Dr,29.398163,-98.428777,,,,,,0
51153,51153,RIGSBY OPPOSITE 2227,,29.399228,-98.42385,,,,,,0
52133,52133,RIGSBY OPPOSITE 2315,,29.399335,-98.421038,,,,,,0
53123,53123,RIGSBY OPPOSITE GROBE,Rigsby Ave & Shrader Rd,29.399387,-98.418889,,,,,,0
55363,55363,Rigsby Opposite Rigsby Apts,,29.398291,-98.409843,,,,,,0
56313,56313,Rigsby Between Bonair & W.W. White,,29.398202,-98.407401,,,,,,0
58363,58363,RIGSBY & TILLIE,,29.39823,-98.398708,,,,,,0
39293,39293,CASTROVILLE & ACME,,29.408912,-98.587502,,,,,,0
22933,22933,CASTROVILLE & JASMINE,,29.409818,-98.583393,,,,,,0
22883,22883,CASTROVILLE OPPOSITE S.W. 39TH,,29.410371,-98.580993,,,,,,0
23743,23743,CASTROVILLE OPPOSITE S.W. 38TH,,29.410833,-98.579016,,,,,,0
24613,24613,CASTROVILLE OPPOSITE S.W. 37TH,,29.411349,-98.57675,,,,,,0
25533,25533,CASTROVILLE & S.W. 35TH,Castroville Rd & Sw 36th St,29.41237,-98.57208,,,,,,0
26313,26313,CASTROVILLE & S.W. 34TH,Castroville Rd & Sw 34th St,29.412841,-98.57002,,,,,,0
26353,26353,CASTROVILLE & BARNEY,Castroville Rd & Valencia Ave,29.413312,-98.568012,,,,,,0
26293,26293,CASTROVILLE & DAHLGREEN,Castroville Rd & Moraima St,29.413792,-98.565994,,,,,,0
27173,27173,CASTROVILLE & ROMERO,Castroville Rd & Calle Romero,29.414336,-98.563522,,,,,,0
18873,18873,CASTROVILLE & CORONADO,Castroville Rd & Balboa Ave,29.415269,-98.559443,,,,,,0
19833,19833,CASTROVILLE & JUANITA,Castroville Rd & Juanita St,29.415559,-98.558146,,,,,,0
19783,19783,CASTROVILLE OPPOSITE SAN AUGUSTINE,,29.41591,-98.556598,,,,,,0
11527,11527,LAS PALMAS PARKING LOT NEXT TO CLIN,LAS PALMAS MALL & CASTROVILLE RD,29.416809,-98.554318,,,,,,0
12433,12433,CASTROVILLE OPPOSITE INCA,Castroville Rd & Unnamed,29.417289,-98.550884,,,,,,0
13313,13313,CASTROVILLE OPPOSITE LAS PALMAS YWC,Castroville Rd & Inca Dr,29.417833,-98.548484,,,,,,0
81726,81726,NAVARRO & CROCKETT,,29.424895,-98.489652,,,,,,0
71926,71926,NAVARRO & PECAN,,29.428441,-98.489745,,,,,,0
79486,79486,NAVARRO & N. ST. MARY'S,,29.43132,-98.490766,,,,,,0
71236,71236,N. ST. MARY'S & LEXINGTON,,29.432366,-98.489292,,,,,,0
61986,61986,N. ST. MARY'S & MCCULLOUGH,,29.433477,-98.487366,,,,,,0
62736,62736,N. ST. MARY'S OPPOSITE PROVIDENCE H,,29.434478,-98.485655,,,,,,0
62356,62356,N. ST. MARY'S OPPOSITE CENTRAL CATH,,29.436139,-98.484625,,,,,,0
52866,52866,N. ST. MARY'S & JONES,,29.438801,-98.484512,,,,,,0
52436,52436,N. ST. MARY'S & ELMIRA,,29.440759,-98.48579,,,,,,0
52226,52226,N. ST. MARY'S & EUCLID,,29.441986,-98.485955,,,,,,0
42826,42826,N. ST. MARY'S & E. PARK,,29.443736,-98.486099,,,,,,0
42526,42526,N. ST. MARY'S & LOCUST,,29.444963,-98.486079,,,,,,0
31766,31766,N. ST. MARY'S & ASHBY,,29.449033,-98.487811,,,,,,0
31586,31586,N. ST. MARY'S & FRENCH,,29.450476,-98.486914,,,,,,0
23613,23613,N. ST. MARY'S IN FRONT OF 3126,,29.454023,-98.48307,,,,,,0
93957,93957,STADIUM DR. AT TRINITY SAMS CENTER,,29.458895,-98.482267,,,,,,0
23127,23127,STADIUM DR. & MULBERRY,,29.457253,-98.482298,,,,,,0
23619,23619,N ST. MARY'S & US 281,,29.454131,-98.483009,,,,,,0
32137,32137,N. ST. MARY'S BET. WOODLAWN & CRA,,29.451947,-98.485534,,,,,,0
32317,32317,N. ST. MARY'S BET. RUSSELL & FREN,,29.45081,-98.486667,,,,,,0
42527,42527,N. ST. MARY'S & LOCUST,,29.445821,-98.486368,,,,,,0
42827,42827,N. ST. MARY'S & E. PARK,,29.443917,-98.486172,,,,,,0
52227,52227,N. ST. MARY'S & EUCLID,,29.442076,-98.486027,,,,,,0
52437,52437,N. ST. MARY'S & ELMIRA,,29.440894,-98.485903,,,,,,0
52867,52867,N. ST. MARY'S & CAMDEN,,29.439026,-98.484553,,,,,,0
62267,62267,N. ST. MARY'S & DALLAS,,29.437005,-98.48478,,,,,,0
62737,62737,N. ST. MARY'S AT PROVIDENCE H.S.,,29.434523,-98.485665,,,,,,0
61997,61997,N. ST. MARY'S & MCCULLOUGH,,29.433585,-98.487252,,,,,,0
79477,79477,N. ST. MARY'S & NAVARRO,,29.431527,-98.490714,,,,,,0
93257,93257,COLORADO & BRAZOS,,29.423075,-98.513761,,,,,,0
94237,94237,S.W. 24TH & SAN FERNANDO,,29.423503,-98.543352,,,,,,0
93469,93469,EL PASO & S.W. 26TH,,29.422374,-98.545803,,,,,,0
93857,93857,S.W. 26TH & LAS PALMAS DR.,,29.420569,-98.54642,,,,,,0
13147,13147,S.W. 26TH & CASTROVILLE,,29.418944,-98.546593,,,,,,0
12439,12439,CASTROVILLE & INCA,,29.417398,-98.550754,,,,,,0
19669,19669,CASTROVILLE & S. SAN AUGUSTINE,,29.416032,-98.556584,,,,,,0
19839,19839,CASTROVILLE OPPOSITE JUANITA,,29.415724,-98.557933,,,,,,0
18879,18879,CASTROVILLE OPPOSITE CORONADO,,29.415298,-98.559818,,,,,,0
18939,18939,CASTROVILLE & MADRID,,29.414873,-98.561744,,,,,,0
27179,27179,CASTROVILLE & ROMERO,,29.414447,-98.563526,,,,,,0
27219,27219,CASTROVILLE & DAHLGREEN,,29.413922,-98.565833,,,,,,0
26359,26359,CASTROVILLE OPPOSITE BARNEY,,29.41346,-98.567872,,,,,,0
26319,26319,CASTROVILLE OPPOSITE VALENCIA,,29.413206,-98.569078,,,,,,0
25459,25459,CASTROVILLE & S.W. 35TH,,29.412527,-98.57191,,,,,,0
23749,23749,CASTROVILLE & S.W. 38TH,,29.410932,-98.57882,,,,,,0
22889,22889,CASTROVILLE & S.W. 39TH,,29.41038,-98.581148,,,,,,0
39299,39299,CASTROVILLE & ACME,,29.408938,-98.587626,,,,,,0
86296,86296,W.W. WHITE RD. OPPOSITE IRENE DR.,,29.384553,-98.40455,,,,,,0
87716,87716,W.W. WHITE RD. & ALMA,S Ww White Rd & Alma Dr,29.381828,-98.40447,,,,,,0
77733,77733,SINCLAIR IN FRONT OF 4636,,29.386319,-98.400336,,,,,,0
78763,78763,SINCLAIR OPPOSITE TILLIE,,29.386318,-98.398554,,,,,,0
16289,16289,E.SOUTHCROSS & W.W.WHITE RD,E Southcross Blvd & S Ww White Rd,29.375024,-98.405412,,,,,,0
13229,13229,SOUTHCROSS IN FRONT OF 3875,,29.374851,-98.418284,,,,,,0
98446,98446,PECAN VALLEY & PECAN VALLY CIRCLE,Pecan Valley Dr & Pecan Valley Dr,29.380963,-98.430844,,,,,,0
88176,88176,PECAN VALLEY OPPOSITE HIAWATHA,Pecan Valley Dr & Hiawatha St,29.384952,-98.430533,,,,,,0
68816,68816,PECAN VALLEY & SMALLWOOD,Pecan Valley Dr & Smallwood Dr,29.391198,-98.433054,,,,,,0
68316,68316,PECAN VALLEY BET. SARGENT & GATEWAY,Pecan Valley Dr & Sargent St,29.393345,-98.433084,,,,,,0
58816,58816,PECAN VALLEY & ROLAND,Pecan Valley Dr & Roland Ave,29.395809,-98.433094,,,,,,0
58416,58416,PECAN VALLEY & RIGSBY,Pecan Valley Dr & Roland Ave,29.397767,-98.432681,,,,,,0
48816,48816,PECAN VALLEY & DREXEL,Pecan Valley Dr & E Drexel Ave,29.400132,-98.432701,,,,,,0
47226,47226,AMANDA BETWEEN K ST. & J ST.,,29.404053,-98.436774,,,,,,0
36596,36596,AMANDA OPPOSITE H ST.,,29.406489,-98.436763,,,,,,0
26996,26996,AMANDA OPPOSITE YUCCA,,29.409214,-98.436772,,,,,,0
26939,26939,YUCCA & AURELIA,,29.409522,-98.4391,,,,,,0
25959,25959,YUCCA & ROBESON,,29.409496,-98.442026,,,,,,0
24969,24969,YUCCA OPPOSITE ANITA,,29.409479,-98.445013,,,,,,0
24939,24939,YUCCA & HALLIE,,29.409461,-98.447145,,,,,,0
23959,23959,YUCCA & CLARK,,29.409462,-98.449206,,,,,,0
33257,33257,CLARK BETWEEN F & G ST.,Clark Ave & F St,29.407796,-98.449314,,,,,,0
33747,33747,CLARK & PORTER,Clark Ave & Fuente St,29.406082,-98.449314,,,,,,0
32719,32719,PORTER & MITTMAN,Porter St & S Mittman St,29.405938,-98.454434,,,,,,0
31749,31749,PORTER & GEVERS,Porter St & S Mittman St,29.405956,-98.456597,,,,,,0
39779,39779,PORTER & NOPAL,Porter St & Nopal St,29.405965,-98.458791,,,,,,0
39729,39729,PORTER & S. NEW BRAUNFELS,Porter St & Nopal St,29.405965,-98.460996,,,,,,0
38759,38759,PORTER & ST. ANTHONY,,29.405971,-98.463225,,,,,,0
37799,37799,PORTER & PALMETTO,Porter St & S Palmetto Ave,29.405965,-98.465322,,,,,,0
37739,37739,PORTER & PIEDMONT,Porter St & S Palmetto Ave,29.405965,-98.467692,,,,,,0
36769,36769,PORTER & PINE,Porter St & S Piedmont St,29.405965,-98.469278,,,,,,0
36829,36829,ARANSAS & OLIVE,Aransas Ave & Porter St,29.405649,-98.471626,,,,,,0
35176,35176,S. HACKBERRY & INDIANA,,29.408545,-98.473239,,,,,,0
25479,25479,IOWA & S. HACKBERRY,IOWA ST & S HACKBERRY ST,29.412028,-98.473579,,,,,,0
24599,24599,IOWA & CHERRY,,29.412037,-98.47602,,,,,,0
13839,13839,CESAR CHAVEZ IN FRONT OF THE INSTITUTE OF TEXAN CULTURES,E Durango Blvd & S Bowie St,29.415871,-98.482929,,,,,,0
12129,12129,CESAR CHAVEZ FRNT OF J.H. WOOD BLDG,E Durango Blvd & Indianola St,29.417919,-98.485876,,,,,,0
11269,11269,CESAR CHAVEZ & S. ALAMO,,29.418542,-98.488157,,,,,,0
11219,11219,CESAR CHAVEZ BLVD & S. ST. MARY'S,,29.418326,-98.490351,,,,,,0
99586,99586,S.ST.MARY'S & NUEVA,,29.421114,-98.490877,,,,,,0
63946,63946,BROADWAY & NINTH,Broadway Ave & 9th St,29.433377,-98.481728,,,,,,0
64126,64126,BROADWAY OPPOSITE ROY SMITH,,29.43779,-98.478648,,,,,,0
35646,35646,BROADWAY & ARMY,,29.44934,-98.474505,,,,,,0
26626,26626,BROADWAY & MULBERRY,Broadway St & Humphreys Ave,29.454222,-98.47156,,,,,,0
17626,17626,BROADWAY & ETHEL,Broadway Ave & Ethel Ct,29.459726,-98.467685,,,,,,0
88546,88546,BROADWAY & KATHERINE CT.,,29.469136,-98.463588,,,,,,0
68536,68536,BROADWAY & ELLWOOD,Broadway Ave & St Dennis Ave,29.478764,-98.463542,,,,,,0
67196,67196,BROADWAY OPPOSITE OGDEN LANE,,29.480215,-98.464813,,,,,,0
57886,57886,BROADWAY & MONTCLAIR,Broadway Ave & Broadway St,29.481895,-98.465563,,,,,,0
47996,47996,BROADWAY & WILDROSE,,29.486288,-98.466442,,,,,,0
47556,47556,BROADWAY & ROSEMARY,,29.487885,-98.466462,,,,,,0
37356,37356,BROADWAY & EDGEWOOD,,29.493776,-98.466503,,,,,,0
27966,27966,BROADWAY & CLAYWELL,Broadway St & W Oakview Pl,29.495429,-98.466461,,,,,,0
27256,27256,BROADWAY & NOTTINGHAM,,29.499424,-98.466533,,,,,,0
17656,17656,BROADWAY & KNIBBE AVE.,,29.501237,-98.466533,,,,,,0
17556,17556,BROADWAY & LORENZ,,29.502329,-98.466522,,,,,,0
17356,17356,BROADWAY IN FRONT OF 7834,,29.503854,-98.466388,,,,,,0
97556,97556,BROADWAY & SUNSET RD.,Broadway St & W Sunset Rd,29.507103,-98.466204,,,,,,0
87966,87966,BROADWAY & LAWNDALE,Broadway St & E Lawndale Dr,29.510008,-98.466163,,,,,,0
87566,87566,BROADWAY IN FRONT OF 8212,Broadway St & Ridgecrest Dr,29.512164,-98.466142,,,,,,0
78426,78426,BROADWAY IN FRONT OF 8502,,29.517909,-98.463426,,,,,,0
69626,69626,BROADWAY & CEEGEE,Broadway St & Sable Ln,29.520997,-98.460314,,,,,,0
69196,69196,BROADWAY OPPOSITE MANNIX,Broadway St & Mannix Dr,29.523712,-98.45755,,,,,,0
51836,51836,BROADWAY & DANBURY,Broadway St & Mannix Dr,29.524731,-98.456529,,,,,,0
51486,51486,BROADWAY & EASTLEY,,29.526803,-98.454439,,,,,,0
52136,52136,BROADWAY OPPOSITE 9707,,29.52812,-98.453098,,,,,,0
42876,42876,BROADWAY & BROCKTON,Broadway St & Chipley Cir,29.529521,-98.451638,,,,,,0
43526,43526,BROADWAY IN FRONT OF 10014,,29.53116,-98.450012,,,,,,0
43373,43373,MACARTHUR VIEW OPP. REGENCY PL ELEM,,29.531817,-98.44701,,,,,,0
44763,44763,MACARTHUR VIEW OPPOSITE MAYFAIR,E Bitters Rd & Broadway St,29.530305,-98.444891,,,,,,0
57517,57517,NACOGDOCHES IN FRONT OF 3243,Nacogdoches Rd & Salado Pky,29.527805,-98.43538,,,,,,0
56517,56517,NACOGDOCHES & MACARTHUR VIEW,Nacogdoches Rd & E Valley View Ln,29.526326,-98.438971,,,,,,0
55489,55489,MACARTHUR VIEW & NACOGDOCHES,,29.526835,-98.439976,,,,,,0
55259,55259,MACARTHUR VIEW FRNT MAC ARTHUR H.S.,E Bitters Rd & Unnamed,29.528447,-98.44223,,,,,,0
44769,44769,MACARTHUR VIEW & MAYFAIR,E Bitters Rd & Wahada Ave,29.529981,-98.444365,,,,,,0
43389,43389,MACARTHUR VIEW FRNT REGENCY PL ELEM,,29.532245,-98.447511,,,,,,0
42877,42877,BROADWAY & BROCKTON,Broadway St & Brockton Dr,29.529828,-98.451411,,,,,,0
51577,51577,BROADWAY IN FRONT OF 9507,,29.526226,-98.455079,,,,,,0
51837,51837,BROADWAY & DANBURY,Broadway St & Danbury Dr,29.525047,-98.456281,,,,,,0
61117,61117,BROADWAY & MANNIX,Broadway St & Mannix Dr,29.523477,-98.45787,,,,,,0
69627,69627,BROADWAY & CEEGEE,Broadway St & Ceegee Ln,29.521267,-98.460118,,,,,,0
68987,68987,BROADWAY & SABLE,Broadway St & Ceegee Ln,29.519905,-98.461501,,,,,,0
77787,77787,BROADWAY IN FRONT OF 8415,,29.515726,-98.465056,,,,,,0
87657,87657,BROADWAY & RIDGECREST,Broadway St & Ridgecrest Dr,29.511433,-98.466214,,,,,,0
87957,87957,BROADWAY & LAWNDALE,Broadway St & E Lawndale Dr,29.509819,-98.466224,,,,,,0
97557,97557,BROADWAY & SUNSET RD.,Broadway St & E Lawndale Dr,29.507347,-98.466255,,,,,,0
97957,97957,BROADWAY & TERRA ALTA,Broadway St & E Sunset Rd,29.505506,-98.466286,,,,,,0
17257,17257,BROADWAY OPPOSITE 7834,Broadway St & Corita Dr,29.503972,-98.466451,,,,,,0
17557,17557,BROADWAY & LORENZ,,29.502527,-98.466563,,,,,,0
17757,17757,BROADWAY IN FRONT OF 7711,,29.501012,-98.466574,,,,,,0
27757,27757,BROADWAY & BASSE RD.,,29.496997,-98.466564,,,,,,0
37197,37197,BROADWAY & OAKVIEW,,29.494823,-98.466533,,,,,,0
47557,47557,BROADWAY OPPOSITE ROSEMARY,Broadway St & Evans Ave,29.488039,-98.466481,,,,,,0
47897,47897,BROADWAY & INSLEE,Broadway St & Cloverleaf Ave,29.486424,-98.466481,,,,,,0
57357,57357,BROADWAY & CORONA,,29.484176,-98.466462,,,,,,0
58827,58827,BROADWAY OPPOSITE MONTCLAIR,,29.482074,-98.46571,,,,,,0
67197,67197,BROADWAY & OGDEN LANE,Broadway Ave & Ogden Ln,29.480028,-98.464831,,,,,,0
68577,68577,BROADWAY & ST. DENNIS,Broadway Ave & St Dennis Ave,29.478638,-98.463686,,,,,,0
78197,78197,BROADWAY & KENNEDY,Broadway Ave & Joliet Ave,29.476193,-98.462913,,,,,,0
79517,79517,BROADWAY & POCO,Broadway Ave & Hubbard Ave,29.473802,-98.462892,,,,,,0
88587,88587,BROADWAY OPPOSITE KATHERINE CT.,Broadway Ave & Broadway St,29.469507,-98.463593,,,,,,0
88887,88887,BROADWAY OPPOSITE PERRY CT.,,29.467475,-98.46365,,,,,,0
16977,16977,BROADWAY IN FRONT OF 3501,Broadway Ave & Parfun Way,29.45812,-98.468819,,,,,,0
35277,35277,BROADWAY OPPOSITE BRACKENRIDGE,,29.452041,-98.473377,,,,,,0
63947,63947,BROADWAY & NINTH,Broadway Ave & 10th St,29.433622,-98.481676,,,,,,0
72727,72727,BROADWAY & FOURTH,,29.429759,-98.486005,,,,,,0
11263,11263,CESAR CHAVEZ BLVD & S. ALAMO,,29.418371,-98.488043,,,,,,0
12123,12123,CESAR CHAVEZ BLV OPP J.H. WOOD BLDG,,29.417685,-98.485911,,,,,,0
12553,12553,CESAR CHAVEZ BLVD & INDIANOLA,,29.41681,-98.484654,,,,,,0
13823,13823,Cesar Chavez Between Labor & IH-37,,29.41534,-98.48247,,,,,,0
23193,23193,CESAR CHAVEZ AT IH-37 N. EXIT RAMP,,29.413788,-98.479894,,,,,,0
24573,24573,IOWA IN FRONT OF 416,,29.411983,-98.475557,,,,,,0
25473,25473,IOWA & S. HACKBERRY,,29.411974,-98.473383,,,,,,0
36763,36763,PORTER & PINE (102),,29.40591,-98.470036,,,,,,0
37733,37733,PORTER & PIEDMONT,,29.405891,-98.467934,,,,,,0
37793,37793,PORTER & PALMETTO,,29.4059,-98.465524,,,,,,0
38753,38753,PORTER & ST. ANTHONY,,29.405882,-98.463463,,,,,,0
39723,39723,PORTER & S. NEW BRAUNFELS,,29.4059,-98.461455,,,,,,0
39773,39773,PORTER & NOPAL,,29.40589,-98.459158,,,,,,0
31743,31743,PORTER & GEVERS,,29.405899,-98.457005,,,,,,0
32713,32713,PORTER & MITTMAN,Porter St & S Gevers St,29.405884,-98.454599,,,,,,0
33743,33743,PORTER IN FRONT OF 1008,Porter St & Clark Ave,29.40591,-98.450994,,,,,,0
33456,33456,CLARK & H ST.,Clark Ave & Fuente St,29.406352,-98.449253,,,,,,0
33256,33256,CLARK & G ST.,Clark Ave & F St,29.407679,-98.449252,,,,,,0
23956,23956,CLARK & YUCCA,Clark Ave & Yucca St,29.40933,-98.449273,,,,,,0
24933,24933,YUCCA & HALLIE (144),,29.409407,-98.447362,,,,,,0
24963,24963,YUCCA & ANITA,,29.409372,-98.445003,,,,,,0
25953,25953,YUCCA & HAMPTON,,29.409433,-98.442232,,,,,,0
26933,26933,YUCCA OPPOSITE AURELIA,,29.409441,-98.439069,,,,,,0
26993,26993,YUCCA & AMANDA,,29.409458,-98.43706,,,,,,0
36697,36697,AMANDA & H ST.,,29.406507,-98.436845,,,,,,0
57397,57397,PECAN VALLEY & RIGSBY,Pecan Valley Dr & Rigsby Ave,29.398561,-98.432732,,,,,,0
57697,57697,PECAN VALLEY & ROLAND,Pecan Valley Dr & Roland Ave,29.396296,-98.433145,,,,,,0
67497,67497,PECAN VALLEY OPP. SARGENT,Pecan Valley Dr & Sargent St,29.393508,-98.433146,,,,,,0
67897,67897,PECAN VALLEY & SMALLWOOD,Pecan Valley Dr & Hicks Ave,29.391324,-98.433126,,,,,,0
88177,88177,PECAN VALLEY & HIAWATHA,Pecan Valley Dr & Hiawatha St,29.385142,-98.430605,,,,,,0
98437,98437,PECAN VALLEY OPP. PECAN VALLEY CIRC,Pecan Valley Dr & Hiawatha St,29.380981,-98.430885,,,,,,0
15363,15363,E. SOUTHCROSS IN FRONT OF 4302,E Southcross Blvd & Gittinger Dr,29.374927,-98.409901,,,,,,0
16383,16383,E. SOUTHCROSS & W.W. WHITE RD.,,29.374833,-98.404754,,,,,,0
22653,22653,VILLARET OPPOSITE 1627,,29.325428,-98.549612,,,,,,0
23623,23623,VILLARET OPPOSITE 1527,,29.325448,-98.545845,,,,,,0
23629,23629,VILLARET IN FRONT OF 1527,,29.325493,-98.546236,,,,,,0
21699,21699,VILLARET & PALO ALTO RD.,W Villaret Blvd & Palo Alto Rd,29.325443,-98.552185,,,,,,0
11986,11986,PALO ALTO RD. & MALLY,Palo Alto Rd & W Mally Blvd,29.328304,-98.55225,,,,,,0
11686,11686,PALO ALTO RD. OPPOSITE DOOLITTLE,Palo Alto Rd & Gillette Blvd,29.330669,-98.552253,,,,,,0
11286,11286,PALO ALTO RD. OPPOSITE WAINWRIGHT,Palo Alto Rd & Wainwright St,29.332447,-98.552255,,,,,,0
11196,11196,PALO ALTO RD. & HUNTER,Palo Alto Rd & Wainwright St,29.334216,-98.552257,,,,,,0
91289,91289,FAIRMEADOWS & PALO ALTO RD.,Fairmeadows Dr & Palo Alto Rd,29.337248,-98.552672,,,,,,0
91229,91229,FAIRMEADOWS OPPOSITE PRAIRIE HILL,,29.337275,-98.55447,,,,,,0
98199,98199,FAIRMEADOWS OPPOSITE HUNTERS CREEK,Fairmeadows Dr & Hunters Creek St,29.337287,-98.559691,,,,,,0
97389,97389,FAIRMEADOWS & OLETHA,,29.336944,-98.563126,,,,,,0
97429,97429,FAIRMEADOWS & PALM BEACH,Fairmeadows Dr & Palm Beach St,29.335883,-98.56569,,,,,,0
96569,96569,FAIRMEADOWS & SOMERSET,,29.33573,-98.56789,,,,,,0
96286,96286,SOMERSET UNDERNEATH IH-35 S,Somerset Rd & I-35 S,29.33757,-98.566289,,,,,,0
78766,78766,SOMERSET & OWASSO,,29.343832,-98.560899,,,,,,0
78496,78496,SOMERSET & CADDO,,29.345213,-98.559707,,,,,,0
79226,79226,SOMERSET & PIMA,,29.346794,-98.558298,,,,,,0
69776,69776,SOMERSET BET. YUMA & NAVAJO,,29.348438,-98.556889,,,,,,0
69596,69596,SOMERSET & HOPI,,29.349684,-98.55581,,,,,,0
61156,61156,SOMERSET BETWEEN CREE & SIOUX,,29.351364,-98.554329,,,,,,0
43816,43816,SOMERSET & MAYFIELD,,29.361911,-98.545217,,,,,,0
34726,34726,SOMERSET & PYRON,,29.36313,-98.544157,,,,,,0
34456,34456,SOMERSET & WAGNER,,29.364774,-98.542728,,,,,,0
34196,34196,SOMERSET & VICKERS,,29.366607,-98.541133,,,,,,0
25736,25736,SOMERSET & W. SOUTHCROSS,,29.36797,-98.539971,,,,,,0
25376,25376,SOMERSET & MILVID,,29.36974,-98.538417,,,,,,0
16926,16926,SOMERSET & BRUNSWICK,,29.371383,-98.536977,,,,,,0
16676,16676,SOMERSET & STONEWALL,,29.373343,-98.53529,,,,,,0
71516,71516,NOGALITOS & THEO,Nogalitos St & W Theo Ave,29.387818,-98.522686,,,,,,0
17866,17866,S. FLORES AT SAHA,,29.415076,-98.498984,,,,,,0
98566,98566,S. FLORES & STUMBERG,,29.4217,-98.495524,,,,,,0
81526,81526,NAVARRO & HOUSTON,NAVARRO ST & E HOUSTON ST,29.426447,-98.489734,,,,,,0
27636,27636,BROADWAY & NACOGDOCHES,,29.496925,-98.466513,,,,,,0
43256,43256,BROADWAY & MACARTHUR VIEW,Broadway St & E Bitters Rd,29.532516,-98.448605,,,,,,0
43257,43257,BROADWAY IN FRONT OF 10109,,29.532251,-98.448939,,,,,,0
71997,71997,BROADWAY & THIRD,,29.429028,-98.486881,,,,,,0
71839,71839,MARTIN & NAVARRO,,29.42928,-98.489529,,,,,,0
88977,88977,S. FLORES & DOLOROSA,S FLORES ST & DOLOROSA ST,29.423938,-98.494731,,,,,,0
98567,98567,S. FLORES OPPOSITE STUMBERG,,29.421519,-98.495699,,,,,,0
53647,53647,NOGALITOS & ROSLYN,,29.397483,-98.514388,,,,,,0
71517,71517,NOGALITOS & THEO,Nogalitos St & Linares Ave,29.388035,-98.522562,,,,,,0
88867,88867,NOGALITOS OPPOSITE GLADSTONE,,29.382353,-98.527501,,,,,,0
16667,16667,SOMERSET OPPOSITE STONEWALL,,29.373695,-98.535053,,,,,,0
16927,16927,SOMERSET OPPOSITE BRUNSWICK,,29.371618,-98.536833,,,,,,0
25377,25377,SOMERSET OPPOSITE MILVID,,29.369686,-98.538531,,,,,,0
25727,25727,SOMERSET & W. SOUTHCROSS,,29.368277,-98.539744,,,,,,0
34197,34197,SOMERSET OPPOSITE VICKERS,,29.366543,-98.541257,,,,,,0
34457,34457,SOMERSET & LOVETT,,29.364855,-98.542728,,,,,,0
34717,34717,SOMERSET & KING,,29.363067,-98.544281,,,,,,0
43177,43177,SOMERSET & FENFIELD,,29.361351,-98.545762,,,,,,0
69597,69597,SOMERSET OPPOSITE HOPI,,29.34991,-98.555666,,,,,,0
69777,69777,SOMERSET IN FRONT OF 7701 -,,29.34842,-98.556992,,,,,,0
79227,79227,SOMERSET OPPOSITE PIMA,,29.347074,-98.558144,,,,,,0
78497,78497,SOMERSET OPPOSITE CADDO,,29.345439,-98.559552,,,,,,0
78767,78767,SOMERSET OPPOSITE OWASSO,,29.344075,-98.560745,,,,,,0
87927,87927,SOMERSET & IH-35 S ACCESS RD.,,29.338133,-98.565885,,,,,,0
96583,96583,FAIRMEADOWS & SOMERSET,,29.335541,-98.567601,,,,,,0
97453,97453,FAIRMEADOWS & LONG BRANCH,Fairmeadows Dr & Palm Beach St,29.336109,-98.565021,,,,,,0
97383,97383,FAIRMEADOWS & OLETHA,Fairmeadows Dr & Palm Crest St,29.33676,-98.563458,,,,,,0
98193,98193,FAIRMEADOWS & HUNTERS CREEK,Fairmeadows Dr & Hunters Creek St,29.337233,-98.559887,,,,,,0
91113,91113,FAIRMEADOWS & PRAIRIE HILL,,29.337239,-98.555026,,,,,,0
91293,91293,FAIRMEADOWS & PALO ALTO RD.,Fairmeadows Dr & Palo Alto Rd,29.337194,-98.552466,,,,,,0
11197,11197,PALO ALTO RD. OPPOSITE HUNTER,Palo Alto Rd & Wainwright St,29.334026,-98.552318,,,,,,0
11287,11287,PALO ALTO RD. & WAINWRIGHT,Palo Alto Rd & Hunter Ave,29.332681,-98.552317,,,,,,0
11687,11687,PALO ALTO RD. & DOOLITTLE,Palo Alto Rd & Doolittle St,29.330813,-98.552315,,,,,,0
11987,11987,PALO ALTO RD. & BRADLEY,,29.329018,-98.552332,,,,,,0
21687,21687,PALO ALTO RD. & VINCENT,,29.32604,-98.552339,,,,,,0
22659,22659,VILLARET IN FRONT OF 1627,,29.325464,-98.549756,,,,,,0
35337,35337,S.W. 35TH OPPOSITE OLGA,,29.409043,-98.572524,,,,,,0
35373,35373,PATTON & S.W. 34TH,Patton Blvd & Sw 34th St,29.408328,-98.570571,,,,,,0
36323,36323,PATTON BET. VALENCIA & BARNEY,Patton Blvd & Valencia Ave,29.40833,-98.569015,,,,,,0
36363,36363,PATTON & ATHEL,,29.408154,-98.567671,,,,,,0
37416,37416,WESTCOTT & PATTON,Wescott Ave & Amaya St,29.408342,-98.565647,,,,,,0
27926,27926,WESCOTT & CERALVO,Wescott Ave & Ceralvo St,29.410165,-98.565381,,,,,,0
27983,27983,CERALVO & ALLENDE,Ceralvo St & Calle Allende,29.410005,-98.563094,,,,,,0
28953,28953,CERALVO OPPOSITE CORONADO,,29.409739,-98.560657,,,,,,0
31243,31243,CERALVO OPPOSITE CANTORIA,Ceralvo St & Calle Cantoria,29.409057,-98.553667,,,,,,0
32223,32223,CERALVO IN FRONT OF 1602,Ceralvo St & Cupples Rd,29.408789,-98.550896,,,,,,0
33313,33313,CERALVO & CUPPLES,Ceralvo St & Calle Cardova,29.408529,-98.548011,,,,,,0
33363,33363,CERALVO IN FRONT OF 1402,,29.40827,-98.545606,,,,,,0
34343,34343,CERALVO & BARCLAY,,29.408055,-98.54338,,,,,,0
34493,34493,CERALVO IN FRONT OF 1206,,29.407848,-98.541135,,,,,,0
35463,35463,CERALVO & S.W. 19TH,Ceralvo St & Barclay St,29.407688,-98.538842,,,,,,0
36423,36423,CERALVO OPPOSITE S.W. 18TH,Ceralvo St & Sw 18th St,29.407482,-98.536638,,,,,,0
36583,36583,CERALVO & HAMILTON,Ceralvo St & Hamilton Ave,29.407267,-98.534392,,,,,,0
37533,37533,CERALVO & DRIFTWOOD,Ceralvo St & Driftwood St,29.407106,-98.532836,,,,,,0
38683,38683,CERALVO & CALAVERAS,,29.406592,-98.527433,,,,,,0
39643,39643,CERALVO & NAVIDAD,,29.406386,-98.525218,,,,,,0
39793,39793,CERALVO OPPOSITE SABINAS,Ceralvo St & S Sabinas St,29.406236,-98.522874,,,,,,0
31763,31763,CERALVO & TRINITY,,29.406045,-98.521046,,,,,,0
33116,33116,BRAZOS & SPRR,S Brazos St & Southern Pacific,29.409218,-98.51549,,,,,,0
23816,23816,BRAZOS OPPOSITE ANGELA,S Brazos St & Saltillo St,29.410545,-98.515316,,,,,,0
13636,13636,BRAZOS & VERA CRUZ,S Brazos St & Vera Cruz,29.416239,-98.514568,,,,,,0
93746,93746,BRAZOS & SAN FERNANDO,S Brazos St & Torreon St,29.420445,-98.514024,,,,,,0
72646,72646,BROADWAY & MCCULLOUGH,,29.430427,-98.485212,,,,,,0
54556,54556,BROADWAY & CASA BLANCA,Broadway Ave & Casa Blanca St,29.440506,-98.477659,,,,,,0
45136,45136,BROADWAY & N. ALAMO,Broadway St & Cunningham Ave,29.44722,-98.475208,,,,,,0
35276,35276,BROADWAY & BRACKENRIDGE,,29.451632,-98.473526,,,,,,0
26366,26366,BROADWAY & ELEANOR,,29.455936,-98.470341,,,,,,0
17716,17716,BROADWAY & PARLAND,Broadway Ave & Parfun Way,29.458238,-98.468685,,,,,,0
17266,17266,BROADWAY & PERSHING,BROADWAY ST & CARNAHAN ST,29.461755,-98.466352,,,,,,0
98526,98526,BROADWAY & ALLENSWORTH,Broadway St & Thorman Pl,29.464003,-98.46482,,,,,,0
98346,98346,BROADWAY & HILDEBRAND,,29.46549,-98.463795,,,,,,0
88846,88846,BROADWAY & PERRY CT.,,29.467493,-98.463619,,,,,,0
78366,78366,BROADWAY & GROVE,Broadway Ave & Arcadia Pl,29.475137,-98.462769,,,,,,0
78166,78166,BROADWAY & ARCADIA,,29.476435,-98.462649,,,,,,0
68496,68496,AUSTIN HWY. & ELLWOOD,,29.479015,-98.461524,,,,,,0
59926,59926,AUSTIN HWY. & ROUTT,Austin Hwy & Routt St,29.480921,-98.460841,,,,,,0
59836,59836,AUSTIN HWY. & MONTCLAIR,Austin Hwy & Albany St,29.482391,-98.460181,,,,,,0
52336,52336,AUSTIN HWY. & RITTIMAN RD.,,29.484707,-98.453027,,,,,,0
43936,43936,AUSTIN HWY. IN FRONT OF 1110,,29.486032,-98.450047,,,,,,0
43796,43796,AUSTIN HWY. & EXETER,,29.487096,-98.447737,,,,,,0
44566,44566,AUSTIN HWY. IN FRONT OF 1242,,29.488079,-98.445644,,,,,,0
36926,36926,AUSTIN HWY. AT LEGACY HEIGHTS APTS,,29.490757,-98.43994,,,,,,0
36696,36696,AUSTIN HWY. IN FRONT OF 1440,,29.492488,-98.436207,,,,,,0
37466,37466,AUSTIN HWY. & HARRY WURZBACH,,29.493263,-98.434608,,,,,,0
38326,38326,AUSTIN HWY. OPPOSITE 1533,,29.494138,-98.4327,,,,,,0
29776,29776,AUSTIN HWY. IN FRONT OF 1718,,29.496896,-98.426934,,,,,,0
21426,21426,AUSTIN HWY. IN FRONT OF 1780,AUSTIN HWY & PRIVATE RD,29.498234,-98.424456,,,,,,0
21186,21186,AUSTIN HWY. & CORINE,Austin Hwy & Bitterblue Ln,29.4995,-98.422478,,,,,,0
12756,12756,AUSTIN HWY. FRONT N.E. PROF.BLDG.,,29.501782,-98.419124,,,,,,0
13346,13346,AUSTIN HWY. FRONT N.HILL SH.CTR.,,29.503062,-98.417432,,,,,,0
93996,93996,AUSTIN HWY. IN FRONT OF 2146,,29.504108,-98.416049,,,,,,0
85736,85736,PERRIN BEITEL OPPOSITE BRIAR GLEN,,29.511151,-98.409835,,,,,,0
85116,85116,PERRIN BEITEL IN FRONT OF 8200,,29.513145,-98.410339,,,,,,0
74296,74296,PERRIN BEITEL & INDUSTRIAL CTR.,,29.518279,-98.410923,,,,,,0
64796,64796,PERRIN BEITEL & CENTER GATE,,29.52029,-98.410952,,,,,,0
64296,64296,PERRIN BEITEL & SUNSHADOW,,29.5239,-98.4109,,,,,,0
54596,54596,PERRIN BEITEL & SUN GATE,,29.525929,-98.41102,,,,,,0
44186,44186,PERRIN BEITEL OPP. PERRIN CENTRAL,,29.53292,-98.411066,,,,,,0
24986,24986,PERRIN BEITEL & GREYSTONE,,29.5379,-98.411021,,,,,,0
25613,25613,EL SENDERO & PERRIN BEITEL,,29.539939,-98.410514,,,,,,0
25296,25296,EL SENDERO IN FRONT OF 11222,,29.541822,-98.407417,,,,,,0
26126,26126,EL SENDERO & PESQUERA,,29.542742,-98.406219,,,,,,0
16686,16686,EL SENDERO & AVENIDA PRIMA,,29.544725,-98.403876,,,,,,0
17426,17426,EL SENDERO & THOUSAND OAKS,,29.546005,-98.402791,,,,,,0
96519,96519,THOUSAND OAKS/MIDNIGHT RODEO PK LOT,,29.549968,-98.406471,,,,,,0
17327,17327,EL SENDERO & THOUSAND OAKS,El Sendero St & Alamo Blanco St,29.546024,-98.402903,,,,,,0
16687,16687,EL SENDERO & AVENIDA PRIMA,,29.544925,-98.403758,,,,,,0
26127,26127,EL SENDERO & VESPERO,,29.542679,-98.406395,,,,,,0
25457,25457,EL SENDERO & NACO-PERRIN,,29.541128,-98.40847,,,,,,0
25619,25619,EL SENDERO BET NACO-PERR/PERR BEIT.,,29.540317,-98.409606,,,,,,0
24987,24987,PERRIN BEITEL OPP. GREYSTONE,,29.537747,-98.411093,,,,,,0
44187,44187,PERRIN BEITEL & PERRIN CENTRAL,,29.53339,-98.411117,,,,,,0
44997,44997,PERRIN BEITEL OPP. CLEAR SPRING,,29.529204,-98.411131,,,,,,0
54597,54597,PERRIN BEITEL OPPOSITE SUN GATE,,29.525902,-98.411082,,,,,,0
64297,64297,PERRIN BEITEL & COMSTOCK,,29.523683,-98.411053,,,,,,0
64887,64887,PERRIN BEITEL & BRETTON RIDGE,,29.519884,-98.411004,,,,,,0
74797,74797,PERRIN BEITEL & LOOP 410 EAST,,29.514507,-98.410792,,,,,,0
85117,85117,PERRIN BEITEL OPPOSITE 8200,,29.513019,-98.41037,,,,,,0
85737,85737,PERRIN BEITEL & BRIAR GLEN,,29.511268,-98.409928,,,,,,0
95137,95137,PERRIN BEITEL & AUSTIN HWY.,,29.509346,-98.409486,,,,,,0
95237,95237,AUSTIN HWY. OPP. CALLARMAN NORTH,Austin Hwy & S Callarman,29.507976,-98.410984,,,,,,0
13347,13347,AUSTIN HWY. OPP. N HILL SHP. CTR.,Austin Hwy & Lanark Dr,29.503116,-98.417516,,,,,,0
12747,12747,AUSTIN HWY. IN FRONT OF 1955,Austin Hwy & Lanark Dr,29.501637,-98.419486,,,,,,0
21187,21187,AUSTIN HWY. OPPOSITE CORINE,Austin Hwy & Corinne Dr,29.499563,-98.422478,,,,,,0
21427,21427,AUSTIN HWY. OPPOSITE 1780,Austin Hwy & Unnamed,29.497841,-98.42518,,,,,,0
29777,29777,AUSTIN HWY. OPPOSITE 1718,Austin Hwy & Unnamed,29.496858,-98.427181,,,,,,0
38327,38327,AUSTIN HWY. IN FRONT OF 1533 (HEB),,29.494264,-98.432865,,,,,,0
37467,37467,AUSTIN HWY. & HARRY WURZBACH,,29.493498,-98.434433,,,,,,0
37517,37517,AUSTIN HWY. IN FRONT OF 1435,,29.492434,-98.436743,,,,,,0
36927,36927,AUSTIN HWY. & RAINBOW,,29.491271,-98.438992,,,,,,0
45147,45147,AUSTIN HWY. & VANDIVER,TX-368-SPUR & AUSTIN HWY,29.490072,-98.441498,,,,,,0
44567,44567,AUSTIN HWY. FRONT TERRELL PLAZA,,29.488052,-98.445798,,,,,,0
43687,43687,AUSTIN HWY. & MOUNT CALVARY,,29.487367,-98.447304,,,,,,0
52177,52177,AUSTIN HWY. IN FRONT OF 1111,,29.486249,-98.449717,,,,,,0
52337,52337,AUSTIN HWY. & MEADOW LANE,TX-368-SPUR & W MEADOWLANE DR,29.484869,-98.453167,,,,,,0
59557,59557,AUSTIN HWY. & N. NEW BRNFLS.,Austin Hwy & N New Braunfels Ave,29.483952,-98.459047,,,,,,0
59647,59647,AUSTIN HWY BTW. NEW BRNFLS & ALBANY,,29.483463,-98.459688,,,,,,0
59927,59927,AUSTIN HWY. & ROUTT,Austin Hwy & Routt St,29.481173,-98.460954,,,,,,0
68497,68497,AUSTIN HWY. & ELLWOOD,,29.47925,-98.461586,,,,,,0
98467,98467,BROADWAY IN FRONT OF AT&T BLDG.,Broadway St & Allensworth St,29.464455,-98.464573,,,,,,0
97887,97887,BROADWAY IN FRONT OF 4001,Broadway St & Carnahan Ave,29.463083,-98.46548,,,,,,0
17157,17157,BROADWAY & TULETA,Broadway St & Carnahan Ave,29.461333,-98.466665,,,,,,0
17527,17527,BROADWAY IN FRONT OF 3617,Broadway Ave & Broadway St,29.460006,-98.467541,,,,,,0
26357,26357,BROADWAY IN FRONT OF 3303,,29.456558,-98.469949,,,,,,0
26627,26627,BROADWAY & MULBERRY,BROADWAY ST & HUMPHREYS AVE,29.454134,-98.471838,,,,,,0
35557,35557,BROADWAY IN FRONT OF 2503,,29.449674,-98.474423,,,,,,0
45137,45137,BROADWAY OPPOSITE CUNNINGHAM (ALAMO,,29.447057,-98.475351,,,,,,0
64127,64127,BROADWAY & ROY SMITH,,29.437962,-98.478607,,,,,,0
84569,84569,W. COMMERCE & RICHTER,,29.42671,-98.509591,,,,,,0
13637,13637,BRAZOS & VERA CRUZ,,29.416235,-98.514736,,,,,,0
23137,23137,BRAZOS & TAMPICO,,29.414241,-98.514983,,,,,,0
33417,33417,BRAZOS BETWEEN KEMPER & MERIDA,,29.408321,-98.515763,,,,,,0
39799,39799,CERALVO & SABINAS,Ceralvo St & S Sabinas St,29.406282,-98.52274,,,,,,0
39649,39649,CERALVO & NAVIDAD,Ceralvo St & S Sabinas St,29.406461,-98.524986,,,,,,0
38689,38689,CERALVO OPPOSITE CALAVERAS,Ceralvo St & S Navidad St,29.406658,-98.52717,,,,,,0
37549,37549,CERALVO OPPOSITE 754 (SPRR),Ceralvo St & Southern Pacific,29.407097,-98.532094,,,,,,0
36589,36589,CERALVO & HAMILTON,Ceralvo St & Hamilton Ave,29.407285,-98.534072,,,,,,0
36429,36429,CERALVO & S.W. 18TH,Ceralvo St & Sw 18th St,29.4075,-98.536267,,,,,,0
35469,35469,CERALVO & S.W. 19TH,Ceralvo St & Sw 19th St,29.407715,-98.538533,,,,,,0
34499,34499,CERALVO OPPOSITE 1206,Ceralvo St & Sw 19th St,29.407966,-98.54114,,,,,,0
34349,34349,CERALVO & BARCLAY,Ceralvo St & Sw 19th St,29.408145,-98.543087,,,,,,0
33379,33379,CERALVO OPPOSITE 1354,Ceralvo St & Cupples Rd,29.408369,-98.545642,,,,,,0
33319,33319,CERALVO & CUPPLES,Ceralvo St & Cupples Rd,29.408548,-98.547671,,,,,,0
32229,32229,CERALVO & CARDOVA,Ceralvo St & Cupples Rd,29.408843,-98.550855,,,,,,0
31249,31249,CERALVO & CANTORIA,Ceralvo St & Calle Cantoria,29.409111,-98.553667,,,,,,0
29919,29919,CERALVO & JUANITA,Ceralvo St & S General Mcmullen Dr,29.409648,-98.558561,,,,,,0
28959,28959,CERALVO & CORONADO,Ceralvo St & Coronado Ave,29.4098,-98.560364,,,,,,0
27989,27989,CERALVO & ALLENDE,Ceralvo St & Madrid Ave,29.410033,-98.562816,,,,,,0
27929,27929,CERALVO & ARBOLEDA,,29.410241,-98.564861,,,,,,0
37417,37417,WESTCOTT & PATTON,Wescott Ave & Amaya St,29.408243,-98.565719,,,,,,0
36369,36369,PATTON & ATHEL,Patton Blvd & Dahlgreen Ave,29.408232,-98.567418,,,,,,0
36329,36329,PATTON BET BARNEY & VALENCIA,Patton Blvd & Barney Ave,29.408375,-98.568943,,,,,,0
35379,35379,PATTON & S.W. 34TH,Patton Blvd & Valencia Ave,29.4085,-98.570272,,,,,,0
35236,35236,S.W. 35TH & OLGA,,29.409125,-98.572277,,,,,,0
38396,38396,DIANE & BENHAM,Diane Rd & Benham Dr,29.407544,-98.397932,,,,,,0
37179,37179,RICE IN FRONT OF 1011,Rice Rd & S Ww White Rd,29.409124,-98.40031,,,,,,0
37159,37159,RICE OPPOSITE 906,Rice Rd & Diane Rd,29.409117,-98.402814,,,,,,0
36169,36169,RICE & W.W. WHITE,Rice Rd & Diane Rd,29.409118,-98.405255,,,,,,0
35239,35239,RICE OPPOSITE BRUSK,Rice Rd & S Ww White Rd,29.40912,-98.40919,,,,,,0
34269,34269,RICE OPPOSITE SCHUMACHER,Rice Rd & W Hein Rd,29.409103,-98.412868,,,,,,0
34129,34129,RICE & HEIN,Rice Rd & Schumacher Rd,29.409104,-98.414176,,,,,,0
22966,22966,BROOKSDALE & YUCCA,Brooksdale Dr & Yucca St,29.409747,-98.420295,,,,,,0
21789,21789,MORNINVIEW & BOOKERTEE,,29.410589,-98.42272,,,,,,0
21739,21739,MORNINGVIEW & WHEATLEY,,29.410482,-98.424966,,,,,,0
31237,31237,WHEATLEY & F ST.,,29.408542,-98.425039,,,,,,0
39239,39239,F ST. OPPOSITE BRICE (911),F St & Brice St,29.408487,-98.428897,,,,,,0
38279,38279,F ST. IN FRONT OF 863,F St & Pecan Valley Dr,29.408505,-98.430463,,,,,,0
38129,38129,F ST. & PECAN VALLEY,,29.408491,-98.432652,,,,,,0
38527,38527,PECAN VALLEY OPPOSITE H ST.,Pecan Valley Dr & G St,29.406683,-98.432761,,,,,,0
